,ADDRESS,CITY,STATE OR PROVINCE,ZIP OR POSTAL CODE,PRICE,BEDS,BATHS,SQUARE FEET,LOT SIZE,YEAR BUILT,DAYS ON MARKET,$/SQUARE FEET,URL (SEE http://www.redfin.com/buy-a-home/comparative-market-analysis FOR INFO ON PRICING),MLS#,LATITUDE,LONGITUDE,Average School Rating,Crime per Capita (1000s)
0,11 Hazelbranch,Aliso Viejo,CA,92656,975000,3,2.5,1470.0,4950.0,1993.0,3.0,663.0,http://www.redfin.com/CA/Aliso-Viejo/11-Hazelbranch-92656/home/4857179,OC21181915,33.5926134,-117.73836809999999,8.333,1.6291015026065625
1,11 Sanderling Ln,Aliso Viejo,CA,92656,850000,3,2.5,1393.0,3000.0,1989.0,3.0,610.0,http://www.redfin.com/CA/Laguna-Beach/11-Sanderling-Ln-92656/home/4852010,LG21181169,33.5922402,-117.74922590000001,9.0,1.6291015026065625
2,5 Skygate,Aliso Viejo,CA,92656,1350000,4,3.0,2918.0,5040.0,1989.0,5.0,463.0,http://www.redfin.com/CA/Aliso-Viejo/5-Skygate-92656/home/4856114,OC21160272,33.5941792,-117.74006329999999,8.333,1.6291015026065625
3,15 Starling Ln,Aliso Viejo,CA,92656,995000,3,2.5,1605.0,3480.0,1989.0,6.0,620.0,http://www.redfin.com/CA/Aliso-Viejo/15-Starling-Ln-92656/home/4851562,LG21176453,33.596696,-117.744324,9.0,1.6291015026065625
4,78 Summerland Cir,Aliso Viejo,CA,92656,1549000,4,4.5,3258.0,5546.0,2011.0,10.0,475.0,http://www.redfin.com/CA/Aliso-Viejo/78-Summerland-Cir-92656/home/17472883,CV21176676,33.5956524,-117.723661,7.667,1.6291015026065625
5,42 Dawn Ln,Aliso Viejo,CA,92656,1150000,4,2.5,2227.0,3311.0,1999.0,10.0,516.0,http://www.redfin.com/CA/Aliso-Viejo/42-Dawn-Ln-92656/home/4869998,OC21175500,33.5694499,-117.7377267,8.333,1.6291015026065625
6,26 Dawn Ln,Aliso Viejo,CA,92656,1250000,3,2.5,2200.0,3615.0,2000.0,10.0,568.0,http://www.redfin.com/CA/Aliso-Viejo/26-Dawn-Ln-92656/home/4869982,OC21177947,33.5700058,-117.7367646,8.333,1.6291015026065625
7,11 Emerald Ter,Aliso Viejo,CA,92656,1999000,5,4.5,3700.0,7329.0,2010.0,20.0,540.0,http://www.redfin.com/CA/Aliso-Viejo/11-Emerald-Ter-92656/home/17472131,OC21169907,33.5983612,-117.7311293,7.667,1.6291015026065625
8,19 Plateau,Aliso Viejo,CA,92656,1013000,3,3.0,1439.0,3727.0,1999.0,22.0,704.0,http://www.redfin.com/CA/Aliso-Viejo/19-Plateau-92656/home/4866888,OC21166914,33.575838399999995,-117.7330077,8.333,1.6291015026065625
9,18 Deer Creek Ln,Laguna Hills,CA,92653,850000,3,2.5,1769.0,4000.0,1986.0,31.0,480.0,http://www.redfin.com/CA/Laguna-Hills/18-Deer-Creek-Ln-92653/home/4861518,PW21160563,33.594939700000005,-117.7134432,5.25,2.677376171352075
10,55 Shorecliff,Aliso Viejo,CA,92656,1050000,4,2.5,1806.0,4150.0,1991.0,32.0,581.0,http://www.redfin.com/CA/Aliso-Viejo/55-Shorecliff-92656/home/4857380,OC21159466,33.58883220000001,-117.7347232,8.333,1.6291015026065625
11,21 Pierremont,Aliso Viejo,CA,92656,1050000,4,2.5,1965.0,3259.0,2000.0,39.0,534.0,http://www.redfin.com/CA/Aliso-Viejo/21-Pierremont-92656/home/4867020,OC21152833,33.5761225,-117.73162079999999,8.333,1.6291015026065625
12,12 Roundtree Ct,Aliso Viejo,CA,92656,2500000,5,4.0,3642.0,6867.0,2000.0,52.0,686.0,http://www.redfin.com/CA/Aliso-Viejo/12-Roundtree-Ct-92656/home/5773870,OC21140075,33.5669424,-117.74049850000002,8.333,1.6291015026065625
13,32 Groveside Dr,Aliso Viejo,CA,92656,1795000,5,3.0,3280.0,6356.0,1999.0,87.0,547.0,http://www.redfin.com/CA/Aliso-Viejo/32-Groveside-Dr-92656/home/4869619,OC21112699,33.573563799999995,-117.7384827,8.333,1.6291015026065625
14,6692 Mount Lowe Dr,Buena Park,CA,90620,728000,4,1.5,1527.0,6000.0,1959.0,38.0,477.0,http://www.redfin.com/CA/Buena-Park/6692-Mt-Lowe-Dr-90620/home/3662782,OC21142567,33.8209737,-118.01611570000001,4.667,3.4628840707332746
15,1645 S Euclid St,Anaheim,CA,92802,900000,3,1.5,1129.0,8917.0,1955.0,1.0,797.0,http://www.redfin.com/CA/Anaheim/1645-S-Euclid-St-92804/home/3610070,OC21185418,33.806411700000005,-117.94171920000001,3.0,5.244735081770581
16,11192 Lindaloa Ln,Garden Grove,CA,92840,799000,3,2.5,1675.0,7203.0,1955.0,1.0,477.0,http://www.redfin.com/CA/Garden-Grove/11192-Lindaloa-Ln-92840/home/3405027,PW21185194,33.8003895,-117.93824109999998,3.333,3.826716061157669
17,2658 N River Trail Rd,Orange,CA,92865,775000,3,2.5,1987.0,3450.0,1984.0,2.0,390.0,http://www.redfin.com/CA/Orange/2658-N-River-Trail-Rd-92865/home/4357068,PW21182109,33.832887899999996,-117.86298899999998,5.667,3.559405622145507
18,120 S Carousel St,Anaheim,CA,92806,850000,4,3.0,2363.0,5580.0,1970.0,2.0,360.0,http://www.redfin.com/CA/Anaheim/120-S-Carousel-St-92806/home/4049627,PW21183619,33.8404645,-117.8736784,3.0,5.244735081770581
19,8685 Carnation Dr,Buena Park,CA,90620,785000,3,1.75,1552.0,6300.0,1958.0,2.0,506.0,http://www.redfin.com/CA/Buena-Park/8685-Carnation-Dr-90620/home/3306341,PW21174960,33.852099700000004,-117.98184950000001,3.333,3.4628840707332746
20,6715 Via Riviera Way,Buena Park,CA,90620,744000,3,2.0,1618.0,6600.0,1957.0,3.0,460.0,http://www.redfin.com/CA/Buena-Park/6715-Via-Riviera-Way-90620/home/3660205,OC21179720,33.8270099,-118.0157497,5.0,3.4628840707332746
21,1232 E Sycamore St,Anaheim,CA,92805,749000,3,2.0,1446.0,6820.0,1950.0,4.0,518.0,http://www.redfin.com/CA/Anaheim/1232-E-Sycamore-St-92805/home/3204479,OC21183196,33.84255170000001,-117.9026784,2.333,5.244735081770581
22,6652 Vista Loma,Yorba Linda,CA,92886,675000,3,2.5,1733.0,2977.0,1979.0,4.0,389.0,http://www.redfin.com/CA/Yorba-Linda/6652-Vista-Loma-92886/home/17477109,PW21182486,33.8648174,-117.7890324,8.0,0.8341137906813393
23,2702 E Sycamore St,Anaheim,CA,92806,775000,3,2.5,1632.0,7200.0,1962.0,4.0,475.0,http://www.redfin.com/CA/Anaheim/2702-E-Sycamore-St-92806/home/4051706,OC21182945,33.8456679,-117.87319769999999,3.0,5.244735081770581
24,214 N Ventura St,Anaheim,CA,92801,724900,3,2.0,1527.0,7214.0,1957.0,4.0,475.0,http://www.redfin.com/CA/Anaheim/214-N-Ventura-St-92801/home/3323679,OC21179557,33.8343908,-117.9629981,4.333,5.244735081770581
25,865 S Annika St,Anaheim,CA,92806,899900,5,2.5,2547.0,5360.0,1971.0,4.0,353.0,http://www.redfin.com/CA/Anaheim/865-S-Annika-St-92806/home/4004921,PW21182054,33.828567,-117.8829488,3.667,5.244735081770581
26,1851 W Random Dr,Anaheim,CA,92804,759000,3,2.0,1521.0,6000.0,1957.0,4.0,499.0,http://www.redfin.com/CA/Anaheim/1851-W-Random-Dr-92804/home/3603915,PW21182430,33.824647999999996,-117.94860200000001,3.333,5.244735081770581
27,1301 W Laster Ave,Anaheim,CA,92802,770000,4,2.0,1310.0,7590.0,1954.0,5.0,588.0,http://www.redfin.com/CA/Anaheim/1301-Laster-Ave-92802/home/3616598,PW21182274,33.8067482,-117.93050670000001,3.333,5.244735081770581
28,202 N Plantation Pl,Anaheim,CA,92806,810000,3,2.0,1596.0,10000.0,1962.0,5.0,508.0,http://www.redfin.com/CA/Anaheim/202-N-Plantation-Pl-92806/home/4051388,OC21181967,33.8420614,-117.8723278,3.0,5.244735081770581
29,1135 N Louise Dr,Anaheim,CA,92805,599900,5,2.0,2020.0,10260.0,1952.0,5.0,297.0,http://www.redfin.com/CA/Anaheim/1135-N-Louise-Dr-92805/home/3340426,PW21180364,33.850291799999994,-117.89922240000001,2.667,5.244735081770581
30,3130 W Tyler Ave,Anaheim,CA,92801,699500,3,1.0,954.0,7234.0,1956.0,5.0,733.0,http://www.redfin.com/CA/Anaheim/3130-W-Tyler-Ave-92801/home/3676432,PW21180826,33.8336049,-117.99955530000001,4.333,5.244735081770581
31,2280 W Polk Ave,Anaheim,CA,92801,879000,3,2.0,1751.0,7200.0,1957.0,5.0,502.0,http://www.redfin.com/CA/Anaheim/2280-W-Polk-Ave-92801/home/3323718,OC21177343,33.8334408,-117.963021,4.333,5.244735081770581
32,874 N Redondo Dr,Anaheim,CA,92801,840000,4,2.5,1960.0,9240.0,1952.0,6.0,429.0,http://www.redfin.com/CA/Anaheim/874-N-Redondo-Dr-W-92801/home/3193188,21-773114,33.8439208,-117.9324272,3.333,5.244735081770581
33,10582 Larry Dr,Anaheim,CA,92804,699000,3,1.75,1258.0,7500.0,1954.0,7.0,556.0,http://www.redfin.com/CA/Anaheim/10582-Larry-Dr-92804/home/3595984,PW21156113,33.8090444,-117.9655605,4.0,5.244735081770581
34,2004 S Waverly Dr,Anaheim,CA,92802,903300,5,3.0,2326.0,5814.0,1972.0,7.0,388.0,http://www.redfin.com/CA/Anaheim/2004-S-Waverly-Dr-92802/home/3408975,LG21180221,33.7990475,-117.93371029999999,3.333,5.244735081770581
35,1762 N Ballad Dr,Anaheim,CA,92807,749000,3,1.75,1357.0,7930.0,1962.0,9.0,552.0,http://www.redfin.com/CA/Anaheim/1762-N-Ballad-Dr-92807/home/4232405,P1-6199,33.8667006,-117.8012612,7.333,5.244735081770581
36,705 S Neptune St,Anaheim,CA,92804,949900,4,3.0,2267.0,6060.0,1962.0,9.0,419.0,http://www.redfin.com/CA/Anaheim/705-S-Neptune-St-92804/home/3604143,PW21178595,33.8227858,-117.94707350000002,3.333,5.244735081770581
37,2215 E Olmstead Way,Anaheim,CA,92806,870000,5,3.5,2164.0,7200.0,1966.0,9.0,402.0,http://www.redfin.com/CA/Anaheim/2215-E-Olmstead-Way-92806/home/4002250,PW21170100,33.8295968,-117.8859702,3.667,5.244735081770581
38,1111 W Beacon Ave,Anaheim,CA,92802,825000,3,2.0,1282.0,9064.0,1958.0,9.0,644.0,http://www.redfin.com/CA/Anaheim/1111-W-Beacon-Ave-92802/home/3214857,OC21178257,33.8215968,-117.92405349999999,3.0,5.244735081770581
39,1360 N Ferndale St,Anaheim,CA,92801,698000,4,2.0,1307.0,6447.0,1954.0,9.0,534.0,http://www.redfin.com/CA/Anaheim/1360-N-Ferndale-St-92801/home/3316476,PW21178865,33.8535523,-117.96858049999999,3.0,5.244735081770581
40,2521 W Greenacre Ave,Anaheim,CA,92801,789000,3,1.75,1868.0,6039.0,1955.0,10.0,422.0,http://www.redfin.com/CA/Anaheim/2521-W-Greenacre-Ave-92801/home/3318833,PW21175000,33.841907899999995,-117.9727215,4.333,5.244735081770581
41,2542 E Puritan Cir,Anaheim,CA,92806,899900,4,2.0,2086.0,7735.0,1962.0,10.0,431.0,http://www.redfin.com/CA/Anaheim/2542-E-Puritan-Cir-92806/home/4006158,PW21177016,33.8355415,-117.87859979999999,3.667,5.244735081770581
42,2661 W Stanley Ave,Anaheim,CA,92801,650000,4,2.0,1228.0,6172.0,1959.0,11.0,529.0,http://www.redfin.com/CA/Anaheim/2661-W-Stanley-Ave-92801/home/3306745,OC21176978,33.8368689,-117.9789213,4.333,5.244735081770581
43,502 S Revere St,Anaheim,CA,92805,775000,3,1.5,1440.0,6500.0,1949.0,11.0,538.0,http://www.redfin.com/CA/Anaheim/502-S-Revere-St-92806/home/3359586,DW21177683,33.8360507,-117.89031909999999,4.0,5.244735081770581
44,2183 W Cherrywood Ln,Anaheim,CA,92804,830000,3,2.5,1826.0,4500.0,2000.0,11.0,455.0,http://www.redfin.com/CA/Anaheim/2183-W-Cherrywood-Ln-92804/unit-IN/home/5760188,OC21174902,33.8315816,-117.95823130000001,3.667,5.244735081770581
45,1737 W Beacon Ave,Anaheim,CA,92804,799900,5,3.0,1630.0,6000.0,1959.0,12.0,491.0,http://www.redfin.com/CA/Anaheim/1737-W-Beacon-Ave-92804/home/3605323,PW21176625,33.820479399999996,-117.94336670000001,3.333,5.244735081770581
46,1776 N Prelude Dr,Anaheim,CA,92807,798000,3,2.0,1721.0,7410.0,1962.0,13.0,464.0,http://www.redfin.com/CA/Anaheim/1776-N-Prelude-Dr-92807/home/4232258,PW21174986,33.8665711,-117.79915449999999,7.333,5.244735081770581
47,105 N Rose St,Anaheim,CA,92805,1399000,5,3.5,3228.0,16509.0,1890.0,14.0,433.0,http://www.redfin.com/CA/Anaheim/105-N-Rose-St-92805/home/3204072,21-770344,33.8380769,-117.904372,2.333,5.244735081770581
48,1907 E Bolingridge Dr,Orange,CA,92865,940000,4,2.0,1668.0,17464.0,1967.0,15.0,564.0,http://www.redfin.com/CA/Orange/1907-E-Bolingridge-Dr-92865/home/4319658,WS21174217,33.841332,-117.83352020000001,5.333,3.559405622145507
49,333 E Julianna,Anaheim,CA,92801,649900,3,1.0,1232.0,8710.0,1930.0,16.0,528.0,http://www.redfin.com/CA/Anaheim/333-E-Julianna-St-92801/home/4045888,OC21174075,33.84879650000001,-117.9139384,3.0,5.244735081770581
50,1313 N Jasmine Pl,Anaheim,CA,92801,754000,3,2.0,1345.0,6500.0,1956.0,16.0,561.0,http://www.redfin.com/CA/Anaheim/1313-N-Jasmine-Pl-92801/home/3327862,OC21172949,33.8525208,-117.95691210000001,3.0,5.244735081770581
51,718 San Diego Ln,Placentia,CA,92870,899000,3,2.0,1728.0,11900.0,1976.0,18.0,520.0,http://www.redfin.com/CA/Placentia/718-San-Diego-Ln-92870/home/4212734,PW21170498,33.868755,-117.85728799999998,6.333,3.801327570237728
52,3115 W Del Monte Dr,Anaheim,CA,92804,760000,3,1.5,1838.0,7728.0,1956.0,19.0,413.0,http://www.redfin.com/CA/Anaheim/3115-W-Del-Monte-Dr-92804/home/3678243,OC21158781,33.830056400000004,-117.99870890000001,4.667,5.244735081770581
53,2906 E Bellamy Ave,Anaheim,CA,92806,975000,5,3.0,2898.0,7384.0,1963.0,20.0,336.0,http://www.redfin.com/CA/Anaheim/2906-E-Bellamy-Ave-92806/home/4047465,CV21168309,33.837489399999995,-117.86644479999998,5.0,5.244735081770581
54,2540 W Picadilly Way,Anaheim,CA,92801,620000,3,1.75,1128.0,6552.0,1955.0,20.0,550.0,http://www.redfin.com/CA/Anaheim/2540-W-Picadilly-Way-92801/home/3320633,OC21168915,33.855298299999994,-117.9732477,4.333,5.244735081770581
55,1401 E Gary Pl,Anaheim,CA,92805,719900,3,1.5,1148.0,6630.0,1955.0,20.0,627.0,http://www.redfin.com/CA/Anaheim/1401-E-Gary-Pl-92805/home/3964213,OC21168642,33.825202600000004,-117.89521709999998,4.0,5.244735081770581
56,2110 W Grayson Ave,Anaheim,CA,92801,709900,3,2.0,1233.0,6000.0,1957.0,22.0,576.0,http://www.redfin.com/CA/Anaheim/2110-W-Grayson-Ave-92801/home/3331966,LG21168341,33.8496032,-117.9555393,3.0,5.244735081770581
57,11811 Euclid St,Garden Grove,CA,92840,1700000,2,1.0,956.0,27305.0,1948.0,26.0,1778.0,http://www.redfin.com/CA/Garden-Grove/11811-Euclid-St-92840/home/3392058,PW21164745,33.791209,-117.94171599999999,6.667,3.826716061157669
58,1321 N Gilbert St,Anaheim,CA,92801,719900,4,2.0,1581.0,7114.0,1954.0,28.0,455.0,http://www.redfin.com/CA/Anaheim/1321-N-Gilbert-St-92801/home/3316367,PW21163034,33.851863200000004,-117.96826019999999,3.0,5.244735081770581
59,1929 W Elm Pl,Anaheim,CA,92804,805900,4,2.0,1502.0,7863.0,1956.0,29.0,537.0,http://www.redfin.com/CA/Anaheim/1929-W-Elm-Pl-92804/home/3601558,LG21162862,33.8283604,-117.9510547,3.333,5.244735081770581
60,704 S Lassen Ct,Anaheim,CA,92804,950000,4,2.5,2462.0,4783.0,2000.0,31.0,386.0,http://www.redfin.com/CA/Anaheim/704-S-Lassen-Ct-92804/home/5758591,PW21160976,33.8226855,-117.9957581,4.667,5.244735081770581
61,1726 S Latus Pl,Anaheim,CA,92804,829900,3,2.5,1280.0,9360.0,1959.0,31.0,648.0,http://www.redfin.com/CA/Anaheim/1726-S-Latus-Pl-92804/home/3598761,PW21160871,33.8051015,-117.96180840000001,4.0,5.244735081770581
62,2210 E Vermont Ave,Anaheim,CA,92806,830000,4,3.0,2547.0,5096.0,1971.0,31.0,326.0,http://www.redfin.com/CA/Anaheim/2210-E-Vermont-Ave-92806/home/4004824,PW21160257,33.8270803,-117.8863135,3.667,5.244735081770581
63,1761 N Partridge St,Anaheim,CA,92806,1150000,4,2.5,3189.0,5839.0,1977.0,32.0,361.0,http://www.redfin.com/CA/Anaheim/1761-N-Partridge-St-92806/home/4198145,OC21157937,33.866564000000004,-117.8655063,6.0,5.244735081770581
64,2744 W Madison Cir,Anaheim,CA,92801,899900,5,3.5,2769.0,2970.0,2006.0,34.0,325.0,http://www.redfin.com/CA/Anaheim/2744-W-Madison-Cir-92801/home/12256458,OC21158258,33.837476200000005,-117.97759440000002,4.333,5.244735081770581
65,301 E Elm Ave,Fullerton,CA,92832,630000,3,2.0,1723.0,7040.0,1955.0,36.0,366.0,http://www.redfin.com/CA/Fullerton/301-E-Elm-Ave-92832/home/3186705,PW21156734,33.864686,-117.9196139,5.667,6.69140839872717
66,1728 S Varna St,Anaheim,CA,92804,849950,3,2.0,1658.0,7178.0,1954.0,39.0,513.0,http://www.redfin.com/CA/Anaheim/1728-S-Varna-St-92804/home/3610125,OC21154515,33.8041355,-117.94288610000001,3.0,5.244735081770581
67,1268 E Eastwood Dr,Anaheim,CA,92805,729999,3,1.5,1127.0,6600.0,1953.0,39.0,648.0,http://www.redfin.com/CA/Anaheim/1268-E-Eastwood-Dr-92805/home/3207256,OC21149571,33.8447858,-117.9017629,2.667,5.244735081770581
68,10812 Harcourt Ave,Anaheim,CA,92804,1200000,5,2.25,1746.0,11142.0,1930.0,39.0,687.0,http://www.redfin.com/CA/Anaheim/10812-Harcourt-Ave-92804/home/3598145,PW21142713,33.8053662,-117.9686125,4.0,5.244735081770581
69,9725 Mount Dana Cir,Buena Park,CA,90620,799000,4,2.0,1679.0,6976.0,2006.0,40.0,476.0,http://www.redfin.com/CA/Buena-Park/9725-Mt-Dana-Cir-90620/home/3662918,RS21152738,33.8213934,-118.01334809999999,4.667,3.4628840707332746
70,114 S Olympia Ct,Anaheim,CA,92806,799000,4,2.0,1836.0,7446.0,1964.0,43.0,435.0,http://www.redfin.com/CA/Anaheim/114-S-Olympia-Ct-92806/home/3360883,PW21150918,33.840973299999995,-117.88203329999999,3.0,5.244735081770581
71,1124 S Laramie St,Anaheim,CA,92806,895000,4,2.5,2089.0,7210.0,1968.0,52.0,428.0,http://www.redfin.com/CA/Anaheim/1124-S-Laramie-St-92806/home/4002389,OC21143989,33.8207317,-117.87972140000001,3.333,5.244735081770581
72,3314 E Radcliffe Ave,Anaheim,CA,92806,780000,4,2.0,1427.0,5400.0,1971.0,52.0,547.0,http://www.redfin.com/CA/Anaheim/3314-E-Radcliffe-Ave-92806/home/4207366,SB21143369,33.8670961,-117.8551132,6.333,5.244735081770581
73,1787 W Juno Ave,Anaheim,CA,92804,800000,5,2.0,1804.0,6000.0,1959.0,52.0,443.0,http://www.redfin.com/CA/Anaheim/1787-W-Juno-Ave-92804/home/3605421,PW21142195,33.819032,-117.9453345,3.333,5.244735081770581
74,2137 E Ward Ter,Anaheim,CA,92806,679900,3,1.5,1336.0,6120.0,1954.0,52.0,509.0,http://www.redfin.com/CA/Anaheim/2137-E-Ward-Ter-92806/home/3362719,IG21141799,33.840708299999996,-117.88656529999999,3.0,5.244735081770581
75,1015 N Citron,Anaheim,CA,92805,750000,1,1.0,976.0,18413.0,1945.0,63.0,768.0,http://www.redfin.com/CA/Anaheim/1015-N-Citron-St-92805/home/4013663,PW21133956,33.8463966,-117.9277854,3.0,5.244735081770581
76,1795 W Glenoaks Ave,Anaheim,CA,92801,455000,2,1.0,896.0,1863.0,1964.0,66.0,508.0,http://www.redfin.com/CA/Anaheim/1795-Glenoaks-Ave-92801/home/4055539,PW21110010,33.84325629999999,-117.94538020000002,3.667,5.244735081770581
77,1313 E Banyan Ave,Anaheim,CA,92805,760000,4,2.0,1862.0,6490.0,1958.0,67.0,408.0,http://www.redfin.com/CA/Anaheim/1313-E-Banyan-Ave-92805/home/3342319,PW21130017,33.84972020000001,-117.9035252,2.667,5.244735081770581
78,2517 W Merle Pl,Anaheim,CA,92804,839900,5,2.5,1685.0,7380.0,1955.0,68.0,498.0,http://www.redfin.com/CA/Anaheim/2517-W-Merle-Pl-92804/home/3592503,IG21130146,33.820722499999995,-117.97283590000002,3.667,5.244735081770581
79,1828 N Cymbal Way,Anaheim,CA,92807,724900,3,2.0,1238.0,5554.0,1971.0,73.0,586.0,http://www.redfin.com/CA/Anaheim/1828-N-Cymbal-Way-92807/home/4228790,OC21125924,33.868889200000005,-117.80629909999999,7.333,5.244735081770581
80,1204 N Brookhurst St,Anaheim,CA,92801,1050000,4,1.0,1691.0,19259.0,1920.0,78.0,621.0,http://www.redfin.com/CA/Anaheim/1204-N-Brookhurst-St-92801/home/3332119,OC21121707,33.8507744,-117.9587883,3.0,5.244735081770581
81,724 N Bush St N,Anaheim,CA,92805,695000,4,2.0,1293.0,6115.0,1954.0,80.0,538.0,http://www.redfin.com/CA/Anaheim/724-N-Bush-St-92805/home/3202573,PW21116887,33.8452565,-117.90656909999998,3.0,5.244735081770581
82,1275 S Goldstone,Anaheim,CA,92804,899000,4,2.5,2002.0,3587.0,1999.0,82.0,449.0,http://www.redfin.com/CA/Anaheim/1275-S-Goldstone-Cir-92804/home/5760332,RS21115614,33.815532,-118.0114496,4.333,5.244735081770581
83,2885 E Cinnamon Pl,Anaheim,CA,92806,875000,4,2.5,2260.0,3998.0,2003.0,86.0,387.0,http://www.redfin.com/CA/Anaheim/2885-E-Cinnamon-Pl-92806/home/5921281,IG21115885,33.8434672,-117.8703328,5.0,5.244735081770581
84,208 N Carleton Ave,Anaheim,CA,92801,469900,2,1.0,624.0,3375.0,1920.0,88.0,753.0,http://www.redfin.com/CA/Anaheim/208-N-Carleton-Ave-92801/home/4011862,TR21112936,33.8339766,-117.92881329999999,3.333,5.244735081770581
85,2012 W Beacon Ave,Anaheim,CA,92804,748498,3,2.0,2321.0,8720.0,1956.0,102.0,322.0,http://www.redfin.com/CA/Anaheim/2012-W-Beacon-Ave-92804/home/3605927,OC21101591,33.8204549,-117.95329699999999,3.333,5.244735081770581
86,637 S Priscilla,Anaheim,CA,92806,798000,4,2.0,1290.0,7548.0,1958.0,103.0,619.0,http://www.redfin.com/CA/Anaheim/637-S-Priscilla-St-92806/home/3362935,OC21099836,33.8328706,-117.8868858,3.667,5.244735081770581
87,1254 W Glen Dr,Anaheim,CA,92801,679000,3,1.75,1238.0,6592.0,1955.0,106.0,548.0,http://www.redfin.com/CA/Anaheim/1254-W-Glen-Dr-92801/home/4054119,PW21098415,33.8484756,-117.93622739999999,2.333,5.244735081770581
88,2940 E Echo Hill Way,Orange,CA,92867,1200000,4,2.5,2335.0,10138.0,1965.0,115.0,514.0,http://www.redfin.com/CA/Orange/2940-E-Echo-Hill-Way-92867/home/4320807,DW21091223,33.8320176,-117.8226711,6.667,3.559405622145507
89,726 N East St,Anaheim,CA,92805,1100000,2,1.0,1140.0,18280.0,1953.0,314.0,965.0,http://www.redfin.com/CA/Anaheim/726-N-East-St-92805/home/3204087,PW20214677,33.845820399999994,-117.90489540000002,2.667,5.244735081770581
90,1441 W Kiama Pl,Anaheim,CA,92802,679990,3,2.0,1071.0,7347.0,1955.0,321.0,635.0,http://www.redfin.com/CA/Anaheim/1441-Kiama-Pl-92802/home/3214589,PW20205357,33.82462,-117.9323831,3.0,5.244735081770581
91,1249 Driftwood Pl,Brea,CA,92821,828800,4,2.0,1440.0,6767.0,1963.0,2.0,576.0,http://www.redfin.com/CA/Brea/1249-Driftwood-Pl-92821/home/4135872,PW21180737,33.93663529999999,-117.8961784,7.667,2.5779186476492337
92,359 Brea Hills Ave,Brea,CA,92823,1500000,4,3.0,2893.0,12623.0,2003.0,2.0,518.0,http://www.redfin.com/CA/Brea/359-Brea-Hills-Ave-92823/home/5924682,PW21184287,33.923469299999994,-117.8333866,7.667,2.5779186476492337
93,1414 Las Lomas Dr,Brea,CA,92821,899900,3,3.0,2155.0,9639.0,1963.0,2.0,418.0,http://www.redfin.com/CA/Brea/1414-Las-Lomas-Dr-92821/home/4129001,PW21184326,33.94055520000001,-117.9180119,5.25,2.5779186476492337
94,1915 Skywood St,Brea,CA,92821,818900,4,2.5,1627.0,5002.0,1970.0,2.0,503.0,http://www.redfin.com/CA/Brea/1915-Skywood-St-92821/home/4118996,LG21184389,33.9303384,-117.9267538,5.25,2.5779186476492337
95,571 Cardinal St,Brea,CA,92823,948000,4,2.5,2179.0,3304.0,2002.0,3.0,435.0,http://www.redfin.com/CA/Brea/571-Cardinal-St-92823/home/5803964,TR21184189,33.9275348,-117.84444479999999,7.667,2.5779186476492337
96,737 Cactus Ct,Brea,CA,92821,600000,3,2.5,1401.0,1545.0,1974.0,3.0,428.0,http://www.redfin.com/CA/Brea/737-Cactus-Ct-92821/home/4146293,PW21183577,33.927721000000005,-117.89234499999999,8.0,2.5779186476492337
97,1421 Woodcrest Ave,Brea,CA,92821,985000,4,2.5,1959.0,8925.0,1976.0,3.0,503.0,http://www.redfin.com/CA/Brea/1421-Woodcrest-Ave-92821/home/4126847,PW21183383,33.9459244,-117.919202,5.25,2.5779186476492337
98,801 Chestnut Ave,Brea,CA,92821,749900,3,1.5,1216.0,7070.0,1958.0,5.0,617.0,http://www.redfin.com/CA/Brea/801-Chestnut-Ave-92821/home/4080118,PW21173516,33.90960220000001,-117.9071642,7.0,2.5779186476492337
99,925 Oleander St,Brea,CA,92821,799999,3,2.0,1338.0,6792.0,1956.0,5.0,598.0,http://www.redfin.com/CA/Brea/925-Oleander-St-92821/home/17477181,PW21180684,33.917115700000004,-117.9128856,7.0,2.5779186476492337
100,599 Charwood Ct,Brea,CA,92821,624900,4,3.0,1470.0,1548.0,1973.0,7.0,425.0,http://www.redfin.com/CA/Brea/599-Charwood-Ct-92821/home/4120412,PW21180303,33.929657500000005,-117.9229436,5.25,2.5779186476492337
101,2120 Treeridge Cir,Brea,CA,92821,928888,3,2.5,2130.0,5000.0,1976.0,7.0,436.0,http://www.redfin.com/CA/Brea/2120-Treeridge-Cir-92821/home/4151919,TR21180286,33.9231408,-117.87191580000001,7.333,2.5779186476492337
102,2668 E Santa Fe,Brea,CA,92821,939000,3,2.5,1827.0,2881.0,2014.0,8.0,514.0,http://www.redfin.com/CA/Brea/2668-E-Santa-Fe-Rd-92821/home/45380970,PW21178753,33.925022999999996,-117.863028,7.667,2.5779186476492337
103,2368 Foothill Ln,Brea,CA,92821,950000,4,3.5,2500.0,5529.0,1977.0,10.0,380.0,http://www.redfin.com/CA/Brea/2368-Foothill-Ln-92821/home/4152328,PW21175063,33.9216667,-117.8690773,7.333,2.5779186476492337
104,2481 Sommerset Dr,Brea,CA,92821,675000,3,2.0,1578.0,2397.0,1979.0,10.0,428.0,http://www.redfin.com/CA/Brea/2481-Sommerset-Dr-92821/home/4155891,PW21177091,33.925303,-117.865168,7.333,2.5779186476492337
105,1200 Walling Ave,Brea,CA,92821,1495000,6,3.5,2774.0,8850.0,1960.0,11.0,539.0,http://www.redfin.com/CA/Brea/1200-Walling-Ave-92821/home/4133226,PW21177750,33.9338955,-117.91586070000001,5.25,2.5779186476492337
106,553 S Walnut Ave,Brea,CA,92821,699900,2,1.0,840.0,6125.0,1924.0,11.0,833.0,http://www.redfin.com/CA/Brea/553-S-Walnut-Ave-92821/home/4083774,PW21176717,33.912014,-117.904372,7.0,2.5779186476492337
107,1975 Skywood St,Brea,CA,92821,869900,3,2.0,1611.0,5002.0,1971.0,12.0,540.0,http://www.redfin.com/CA/Brea/1975-Skywood-St-92821/home/4119010,LG21176527,33.9303386,-117.927898,5.25,2.5779186476492337
108,856 Jones Dr,Brea,CA,92821,1100000,5,3.5,3452.0,4500.0,2003.0,16.0,319.0,http://www.redfin.com/CA/Brea/856-Jones-Dr-92821/home/5924533,IV21173665,33.9322199,-117.90984180000001,7.667,2.5779186476492337
109,1577 Gatewood Ct,Brea,CA,92821,550000,3,2.5,1302.0,1358.0,1973.0,16.0,422.0,http://www.redfin.com/CA/Brea/1577-Gatewood-Ct-92821/home/4120236,PW21173401,33.92955300000001,-117.9215762,5.25,2.5779186476492337
110,1708 Summerfield Cir,Brea,CA,92821,850000,4,2.5,2077.0,5000.0,1983.0,16.0,409.0,http://www.redfin.com/CA/Brea/1708-Summerfield-Cir-92821/home/4155725,PW21153319,33.922686799999994,-117.87926359999999,7.333,2.5779186476492337
111,2301 Raintree Dr,Brea,CA,92821,695000,2,1.75,1168.0,5040.0,1977.0,16.0,595.0,http://www.redfin.com/CA/Brea/2301-Raintree-Dr-92821/home/4153272,PW21158711,33.918984,-117.87010740000001,7.333,2.5779186476492337
112,3844 Grandview Dr,Brea,CA,92823,1388000,4,3.0,3252.0,6555.0,2002.0,16.0,427.0,http://www.redfin.com/CA/Brea/3844-Grandview-Dr-92823/home/5898593,PW21170743,33.9266004,-117.8422699,7.667,2.5779186476492337
113,2207 Crestview Cir,Brea,CA,92821,1085000,4,2.5,2958.0,5300.0,1976.0,19.0,367.0,http://www.redfin.com/CA/Brea/2207-Crestview-Cir-92821/home/4152134,OC21170730,33.92486160000001,-117.87177849999999,7.333,2.5779186476492337
114,315 S Flower Ave,Brea,CA,92821,1500000,3,2.5,2742.0,21000.0,1937.0,20.0,547.0,http://www.redfin.com/CA/Brea/315-S-Flower-Ave-92821/home/4082149,PW21169768,33.915213200000004,-117.898696,7.333,2.5779186476492337
115,17060 Vista Moraga,Yorba Linda,CA,92886,950000,4,2.5,2250.0,4000.0,2004.0,21.0,422.0,http://www.redfin.com/CA/Yorba-Linda/17060-Vista-Moraga-92886/home/5851162,PW21140832,33.9082454,-117.836569,8.0,0.8341137906813393
116,172 Brookside Ln,Brea,CA,92821,899000,4,2.5,1908.0,6900.0,1983.0,27.0,471.0,http://www.redfin.com/CA/Brea/172-Brookside-Ln-92821/home/4156261,CV21163961,33.921363799999995,-117.87621920000001,7.333,2.5779186476492337
117,1816 Evergreen Ave,Fullerton,CA,92835,799000,3,2.0,1272.0,7245.0,1963.0,28.0,628.0,http://www.redfin.com/CA/Fullerton/1816-Evergreen-Ave-92835/home/4086320,PW21162851,33.905563799999996,-117.8951256,6.0,6.69140839872717
118,419 Redtail Dr,Brea,CA,92823,850000,4,2.5,1531.0,3139.0,2002.0,32.0,555.0,http://www.redfin.com/CA/Brea/419-Redtail-Dr-92823/home/5804910,OC21152128,33.9250655,-117.8451774,7.667,2.5779186476492337
119,235 Verbena Ln,Brea,CA,92823,1750000,5,3.0,3495.0,34500.0,2004.0,32.0,501.0,http://www.redfin.com/CA/Brea/235-Verbena-Ln-92823/home/4141533,PW21159897,33.9309569,-117.80471899999999,7.667,2.5779186476492337
120,3511 Ironbark Way,Yorba Linda,CA,92886,1349900,4,3.0,2800.0,5086.0,2003.0,33.0,482.0,http://www.redfin.com/CA/Yorba-Linda/3511-Iron-Bark-Way-92886/home/5892133,PW21158782,33.9115477,-117.83588219999999,8.0,0.8341137906813393
121,852 E Davidson Ct,Brea,CA,92821,1000000,4,3.0,2398.0,4000.0,1987.0,37.0,417.0,http://www.redfin.com/CA/Brea/852-E-Davidson-Ct-92821/home/4150265,PW21155374,33.929568599999996,-117.882079,8.0,2.5779186476492337
122,855 Peterkin Pl,Brea,CA,92821,960000,4,3.0,2677.0,3052.0,2004.0,38.0,359.0,http://www.redfin.com/CA/Brea/855-Peterkin-Pl-92821/home/5924588,CV21155500,33.933048799999995,-117.909819,7.667,2.5779186476492337
123,605 Juniper St,Brea,CA,92821,1799000,5,3.75,3099.0,11761.0,1964.0,38.0,581.0,http://www.redfin.com/CA/Brea/605-Juniper-St-92821/home/4118734,PW21154525,33.9081172,-117.91313740000001,7.0,2.5779186476492337
124,923 E Almond Dr,Brea,CA,92821,759990,3,1.0,1125.0,6223.0,1954.0,41.0,676.0,http://www.redfin.com/CA/Brea/923-E-Almond-Dr-92821/home/4145757,OC21151606,33.921344899999994,-117.8859702,7.333,2.5779186476492337
125,3920 Landmark Ln,Brea,CA,92823,1250000,4,2.5,3061.0,4950.0,2002.0,44.0,408.0,http://www.redfin.com/CA/Brea/3920-Landmark-Ln-92823/home/5762291,TR21150092,33.9248748,-117.84119380000001,7.667,2.5779186476492337
126,805 N Sutter Ct,Brea,CA,92821,2375000,5,5.5,5380.0,8951.0,2015.0,54.0,441.0,http://www.redfin.com/CA/Brea/805-Sutter-Ct-92821/home/58553320,PW21132991,33.9304804,-117.86816680000001,7.667,2.5779186476492337
127,902 Buttonwood Dr,Brea,CA,92821,1199000,3,2.0,1900.0,8075.0,1970.0,116.0,631.0,http://www.redfin.com/CA/Brea/902-Buttonwood-Dr-92821/home/4142656,DW21090208,33.926951700000004,-117.88233770000001,8.0,2.5779186476492337
128,324 Copa De Oro Dr,Brea,CA,92823,2999999,4,3.5,5803.0,117612.0,1990.0,125.0,517.0,http://www.redfin.com/CA/Brea/324-Copa-de-Oro-Dr-92823/home/4142043,PW21080449,33.929485299999996,-117.8097568,7.667,2.5779186476492337
129,7284 Chippewa Cir,Buena Park,CA,90620,675000,3,1.5,1193.0,6552.0,1959.0,1.0,566.0,http://www.redfin.com/CA/Buena-Park/7284-Chippewa-Cir-90620/home/4042292,PW21185529,33.8551336,-118.01671040000001,5.333,3.4628840707332746
130,4207 W Porter Ave,Fullerton,CA,92833,590000,3,1.75,1245.0,6000.0,1961.0,2.0,474.0,http://www.redfin.com/CA/Fullerton/4207-W-Porter-Ave-92833/home/3310712,OC21182128,33.8610227,-117.9816665,5.333,6.69140839872717
131,7791 Pavonia Cir,Buena Park,CA,90620,739000,3,1.0,1311.0,7560.0,1959.0,3.0,564.0,http://www.redfin.com/CA/Buena-Park/7791-Pavonia-Cir-90620/home/3308028,PW21181132,33.8496203,-117.9840915,4.667,3.4628840707332746
132,8241 Holder St,Buena Park,CA,90620,780000,3,2.0,1072.0,7260.0,1955.0,3.0,728.0,http://www.redfin.com/CA/Buena-Park/8241-Holder-St-90620/home/3295332,21-774574,33.8441295,-118.01703059999998,7.667,3.4628840707332746
133,8171 Holder St,Buena Park,CA,90620,830000,3,2.0,1400.0,7370.0,1955.0,4.0,593.0,http://www.redfin.com/CA/Buena-Park/8171-Holder-St-90620/home/3295221,PW21171639,33.844138,-118.01520079999999,7.667,3.4628840707332746
134,7209 Van Buren Way,Buena Park,CA,90620,759900,4,2.0,1286.0,6000.0,1956.0,4.0,591.0,http://www.redfin.com/CA/Buena-Park/7209-Van-Buren-Way-90620/home/3675254,RS21180358,33.8378807,-118.0076527,4.333,3.4628840707332746
135,6647 San Homero Way,Buena Park,CA,90620,699800,3,1.75,1187.0,6000.0,1957.0,4.0,590.0,http://www.redfin.com/CA/Buena-Park/6647-San-Homero-Way-90620/home/3296678,PW21182479,33.837188,-118.01748799999999,5.0,3.4628840707332746
136,6530 Notre Dame Dr,Buena Park,CA,90620,1200000,4,2.5,2795.0,4675.0,1998.0,4.0,429.0,http://www.redfin.com/CA/Buena-Park/6530-Notre-Dame-Dr-90620/home/3673278,SB21175501,33.8289326,-118.0167906,5.0,3.4628840707332746
137,7777 Adams Way,Buena Park,CA,90620,699000,3,1.5,1259.0,6000.0,1956.0,4.0,555.0,http://www.redfin.com/CA/Buena-Park/7777-Adams-Way-90620/home/3674754,OC21172958,33.838357,-117.99736200000001,4.333,3.4628840707332746
138,5691 Tahoe Cir,Buena Park,CA,90621,715000,5,2.25,1992.0,2960.0,1966.0,5.0,359.0,http://www.redfin.com/CA/Buena-Park/5691-Tahoe-Cir-90621/home/3288571,PW21176425,33.878458,-117.99016599999999,6.333,3.4628840707332746
139,6042 Darlington Ave,Buena Park,CA,90621,580000,3,2.0,1275.0,6750.0,1939.0,5.0,455.0,http://www.redfin.com/CA/Buena-Park/6042-Darlington-Ave-90621/home/3283498,DW21181208,33.872850299999996,-117.9956855,5.0,3.4628840707332746
140,6316 Morgan Way,Buena Park,CA,90620,775000,4,2.0,1497.0,6300.0,1962.0,8.0,518.0,http://www.redfin.com/CA/Buena-Park/6316-Morgan-Way-90620/home/4041877,PW21158655,33.8520694,-118.0227943,7.0,3.4628840707332746
141,7852 Melrose St,Buena Park,CA,90621,949000,3,2.0,1360.0,7500.0,1928.0,8.0,698.0,http://www.redfin.com/CA/Buena-Park/7852-Melrose-St-90621/home/4061944,PW21177883,33.8611054,-117.99603259999999,5.0,3.4628840707332746
142,8930 San Salvador Cir,Buena Park,CA,90620,950000,4,3.0,2452.0,3769.0,2012.0,9.0,387.0,http://www.redfin.com/CA/Buena-Park/8930-San-Salvador-Cir-90620/home/45378428,PW21178533,33.8333533,-118.02082730000001,7.0,3.4628840707332746
143,8275 Galaxy Cir,Buena Park,CA,90620,975000,4,2.5,2475.0,5502.0,1982.0,9.0,394.0,http://www.redfin.com/CA/Buena-Park/8275-Galaxy-Cir-90620/home/3307905,DW21178476,33.8424693,-117.98809479999998,4.667,3.4628840707332746
144,6081 Homewood Ave,Buena Park,CA,90621,800000,3,2.0,1050.0,6750.0,1947.0,9.0,762.0,http://www.redfin.com/CA/Buena-Park/6081-Homewood-Ave-90621/home/3283437,PW21144602,33.872277200000006,-117.9973136,5.0,3.4628840707332746
145,7669 Larkspur Dr,Buena Park,CA,90620,749000,3,2.0,1304.0,5300.0,1975.0,11.0,574.0,http://www.redfin.com/CA/Buena-Park/7669-Larkspur-Dr-90620/home/3684008,OC21177749,33.8515903,-117.99470579999999,4.667,3.4628840707332746
146,8691 Hillcrest Rd,Buena Park,CA,90621,3150000,4,6.0,6114.0,14592.0,1968.0,12.0,515.0,http://www.redfin.com/CA/Buena-Park/8691-Hillcrest-Rd-90621/home/4102343,PW21176424,33.891798,-117.98130049999999,7.0,3.4628840707332746
147,1 Mariner,Buena Park,CA,90621,1150000,5,3.0,2567.0,5363.0,1999.0,13.0,448.0,http://www.redfin.com/CA/Buena-Park/1-Mariner-Cv-90621/home/4070861,PW21174878,33.8768118,-117.97887549999999,6.0,3.4628840707332746
148,7175 Santa Lucia Cir,Buena Park,CA,90620,760000,3,2.0,1263.0,6000.0,1956.0,14.0,602.0,http://www.redfin.com/CA/Buena-Park/7175-Santa-Lucia-Cir-90620/home/3673434,OC21174881,33.84072329999999,-118.0080187,5.667,3.4628840707332746
149,5262 Mccomber Rd,Buena Park,CA,90621,898700,3,2.0,1897.0,8050.0,1965.0,14.0,474.0,http://www.redfin.com/CA/Buena-Park/5262-McComber-Rd-90621/home/3284446,IV21174521,33.8840667,-118.00154540000001,5.333,3.4628840707332746
150,5631 Burlingame Ave,Buena Park,CA,90621,1350000,4,3.0,2838.0,8760.0,1959.0,20.0,476.0,http://www.redfin.com/CA/Buena-Park/5631-Burlingame-Ave-90621/home/4101170,PW21169688,33.878632700000004,-117.98747709999999,7.0,3.4628840707332746
151,7696 El Escorial Way,Buena Park,CA,90620,729000,3,1.0,1055.0,6700.0,1959.0,23.0,691.0,http://www.redfin.com/CA/Buena-Park/7696-El-Escorial-Way-90620/home/3683674,DW21168035,33.849044299999996,-118.0021172,5.0,3.4628840707332746
152,8652 La Homa St,Cypress,CA,90630,1050000,4,2.0,3290.0,6534.0,1925.0,26.0,319.0,http://www.redfin.com/CA/Cypress/8652-La-Homa-St-90630/home/4026444,PW21164647,33.8366601,-118.0357848,6.667,1.7945803672907819
153,7131 Santa Inez Cir,Buena Park,CA,90620,505000,3,1.5,1150.0,879.0,1964.0,29.0,439.0,http://www.redfin.com/CA/Buena-Park/7131-Santa-Inez-Cir-90620/home/3679810,RS21162916,33.845169,-118.008466,5.667,3.4628840707332746
154,5612 Sprague Ave,Cypress,CA,90630,1050000,4,3.0,2582.0,2500.0,2005.0,33.0,407.0,http://www.redfin.com/CA/Cypress/5612-Sprague-Ave-90630/home/7210028,PW21159356,33.837135700000005,-118.0346695,6.667,1.7945803672907819
155,7921 Franklin St,Buena Park,CA,90621,679000,2,1.75,860.0,5350.0,1930.0,34.0,790.0,http://www.redfin.com/CA/Buena-Park/7921-Franklin-St-90621/home/3282150,21-762904,33.8770393,-117.9949346,6.0,3.4628840707332746
156,8724 Orchid Way,Cypress,CA,90630,1249990,4,3.0,2675.0,4577.0,2016.0,37.0,467.0,http://www.redfin.com/CA/Cypress/8724-Orchid-Way-90630/home/143911017,PW21155053,33.8356029,-118.0328618,6.667,1.7945803672907819
157,7849 Adams Way,Buena Park,CA,90620,725000,4,1.5,1523.0,5580.0,1955.0,38.0,476.0,http://www.redfin.com/CA/Buena-Park/7849-Adams-Way-90620/home/3674778,PW21149767,33.8379403,-117.99517809999999,4.333,3.4628840707332746
158,4218 W Flower Ave,Fullerton,CA,92833,699000,4,2.0,1245.0,6000.0,1962.0,42.0,561.0,http://www.redfin.com/CA/Fullerton/4218-W-Flower-Ave-92833/home/3310365,RS21146500,33.8626601,-117.98203259999998,5.333,6.69140839872717
159,5516 Paraguay Dr,Buena Park,CA,90620,689900,3,1.0,980.0,6724.0,1958.0,53.0,704.0,http://www.redfin.com/CA/Buena-Park/5516-Paraguay-Dr-90620/home/4033988,WS21142815,33.85313789999999,-118.03688259999998,7.333,3.4628840707332746
160,6352 Darlington Ave,Buena Park,CA,90621,599999,2,1.0,931.0,6750.0,1927.0,98.0,644.0,http://www.redfin.com/CA/Buena-Park/6352-Darlington-Ave-90621/home/4062163,PW21104955,33.868155200000004,-117.99562079999998,5.0,3.4628840707332746
161,34441 Via Gomez,Dana Point,CA,92624,1999999,3,3.0,4201.0,5200.0,2006.0,13.0,476.0,http://www.redfin.com/CA/Dana-Point/34441-Via-Gomez-92624/home/5004501,OC21173434,33.4623109,-117.669129,6.667,3.8964569426405293
162,34521 Via Catalina Unit A & B,Dana Point,CA,92624,2195000,7,5.0,3689.0,6534.0,1945.0,5.0,595.0,http://www.redfin.com/CA/Dana-Point/34521-Via-Catalina-92624/unit-A-B/home/176139466,LG21181819,33.4612721,-117.672933,6.667,3.8964569426405293
163,35391 Beach Rd,Dana Point,CA,92624,4475000,3,2.5,3043.0,5398.0,1987.0,15.0,1471.0,http://www.redfin.com/CA/Dana-Point/35391-Beach-Rd-92624/home/5001079,CV21174387,33.449315999999996,-117.65708300000001,6.667,3.8964569426405293
164,35535 Beach Rd,Dana Point,CA,92624,4150000,2,2.0,1740.0,3321.0,1964.0,16.0,2385.0,http://www.redfin.com/CA/Dana-Point/35535-Beach-Rd-92624/home/5820009,OC21173639,33.447476,-117.65420400000001,6.667,3.8964569426405293
165,34820 Calle Del Sol,Dana Point,CA,92624,1749000,4,3.0,2391.0,7865.0,1954.0,18.0,731.0,http://www.redfin.com/CA/Dana-Point/34820-Calle-Del-Sol-92624/home/3571335,OC21171165,33.457836900000004,-117.6629645,6.667,3.8964569426405293
166,35787 Beach Rd,Dana Point,CA,92624,7500000,4,3.0,2796.0,4633.0,1954.0,18.0,2682.0,http://www.redfin.com/CA/Dana-Point/35787-Beach-Rd-92624/home/5003226,OC21170662,33.4425541,-117.6478206,6.667,3.8964569426405293
167,372 Plaza Estival,San Clemente,CA,92672,794000,3,2.5,1651.0,1575.0,1977.0,20.0,481.0,http://www.redfin.com/CA/San-Clemente/372-Plaza-Estival-92672/home/4999128,OC21169061,33.454349,-117.65584879999999,6.667,3.2351889008134633
168,35381 Beach Rd,Dana Point,CA,92624,5995000,4,4.0,3789.0,4738.0,1995.0,23.0,1582.0,http://www.redfin.com/CA/Dana-Point/35381-Beach-Rd-92624/home/5000564,OC21165000,33.449438,-117.65729499999999,6.667,3.8964569426405293
169,35527 Beach Rd,Dana Point,CA,92624,6950000,5,4.5,3986.0,4983.0,1991.0,30.0,1744.0,http://www.redfin.com/CA/Dana-Point/35527-Beach-Rd-92624/home/5001093,OC21156136,33.447655,-117.654335,6.667,3.8964569426405293
170,35067 Beach Rd,Dana Point,CA,92624,3998000,6,3.5,3000.0,6534.0,1963.0,33.0,1333.0,http://www.redfin.com/CA/Dana-Point/35067-Beach-Rd-92624/home/5000485,OC21158724,33.4533092,-117.66523329999998,6.667,3.8964569426405293
171,34691 Calle Rosita,Dana Point,CA,92624,1999000,4,3.0,3297.0,6812.0,1971.0,45.0,606.0,http://www.redfin.com/CA/Dana-Point/34691-Calle-Rosita-92624/home/3571445,OC21149068,33.458876399999994,-117.6632625,6.667,3.8964569426405293
172,35555 Beach Rd,Dana Point,CA,92624,6500000,3,3.5,4312.0,5110.0,1987.0,99.0,1507.0,http://www.redfin.com/CA/Dana-Point/35555-Beach-Rd-92624/home/5001100,OC21104249,33.447237,-117.653719,6.667,3.8964569426405293
173,35099 Beach Rd,Dana Point,CA,92624,7499999,9,7.0,4000.0,7841.0,1965.0,143.0,1875.0,http://www.redfin.com/CA/Dana-Point/35099-Beach-Rd-92624/home/5000496,PW21068529,33.452644899999996,-117.66413329999999,6.667,3.8964569426405293
174,2290 Channel Rd,Newport Beach,CA,92661,10650000,4,4.0,3418.0,4000.0,1963.0,11.0,3116.0,http://www.redfin.com/CA/Newport-Beach/2290-Channel-Rd-92661/home/3241534,NP21165282,33.5962234,-117.882079,7.667,4.211687138516407
175,3245 Montana Ave,Costa Mesa,CA,92626,1075000,3,2.0,1572.0,7665.0,1961.0,3.0,684.0,http://www.redfin.com/CA/Costa-Mesa/3245-Montana-Ave-92626/home/3691148,PW21179493,33.6891594,-117.9324746,5.667,3.8867742454296894
176,2988 Andros St,Costa Mesa,CA,92626,1299000,4,1.75,1641.0,7000.0,1959.0,3.0,792.0,http://www.redfin.com/CA/Costa-Mesa/2988-Andros-St-92626/home/3694987,OC21183527,33.680285299999994,-117.9254723,5.667,3.8867742454296894
177,1804 Ocean Ct,Costa Mesa,CA,92627,995000,3,3.0,1873.0,1456.0,2014.0,5.0,531.0,http://www.redfin.com/CA/Costa-Mesa/1804-Ocean-Ct-92627/home/58553546,OC21180676,33.63988270000001,-117.9424972,6.0,3.8867742454296894
178,2131 Republic Ave,Costa Mesa,CA,92627,1075000,3,1.0,1265.0,7210.0,1954.0,8.0,850.0,http://www.redfin.com/CA/Costa-Mesa/2131-Republic-Ave-92627/home/4566167,OC21178712,33.651548,-117.93892759999999,5.0,3.8867742454296894
179,3017 Ceylon Rd,Costa Mesa,CA,92626,1400000,4,2.0,1734.0,7209.0,1959.0,11.0,807.0,http://www.redfin.com/CA/Costa-Mesa/3017-Ceylon-Rd-92626/home/3694620,NP21177182,33.681238799999996,-117.93046090000001,5.667,3.8867742454296894
180,501 San Bernardino Ave,Newport Beach,CA,92663,3999999,6,6.5,4822.0,5875.0,2002.0,18.0,830.0,http://www.redfin.com/CA/Newport-Beach/501-San-Bernardino-Ave-92663/home/3241724,PW21168473,33.6257848,-117.921582,7.333,4.211687138516407
181,518 Santa Ana Ave,Newport Beach,CA,92663,4250000,5,5.5,5167.0,5875.0,1945.0,23.0,823.0,http://www.redfin.com/CA/Newport-Beach/518-Santa-Ana-Ave-92663/home/3241692,NP21166751,33.6264516,-117.92149040000001,7.333,4.211687138516407
182,660 Beach St,Costa Mesa,CA,92627,825000,3,1.5,1190.0,6600.0,1955.0,24.0,693.0,http://www.redfin.com/CA/Costa-Mesa/660-Beach-St-92627/home/4561985,LG21145578,33.645017200000005,-117.92611299999999,4.333,3.8867742454296894
183,1561 Orange Ave Unit B,Costa Mesa,CA,92627,1699000,4,3.0,2271.0,3002.0,2005.0,30.0,748.0,http://www.redfin.com/CA/Costa-Mesa/1561-Orange-Ave-92627/unit-B/home/5927231,NP21159326,33.631681,-117.92271399999998,7.333,3.8867742454296894
184,3151 Barbados Pl,Costa Mesa,CA,92626,1049000,3,2.0,1277.0,6100.0,1957.0,31.0,821.0,http://www.redfin.com/CA/Costa-Mesa/3151-Barbados-Pl-92626/home/3692863,PW21159030,33.6852698,-117.9278064,5.667,3.8867742454296894
185,983 Trabuco Cir,Costa Mesa,CA,92627,989000,3,2.5,1522.0,4125.0,1977.0,36.0,650.0,http://www.redfin.com/CA/Costa-Mesa/983-Trabuco-Cir-92627/home/4555600,OC21147301,33.6567844,-117.94007169999999,5.0,3.8867742454296894
186,1684 Shoreline Way,Costa Mesa,CA,92627,1250000,3,3.25,2197.0,1000.0,2016.0,37.0,569.0,http://www.redfin.com/CA/Costa-Mesa/1684-Shoreline-Way-92627/home/104302251,PW21156250,33.635670899999994,-117.9252215,7.333,3.8867742454296894
187,864 W 19th St,Costa Mesa,CA,92627,1300000,3,3.0,3334.0,6800.0,1955.0,39.0,390.0,http://www.redfin.com/CA/Costa-Mesa/864-W-19th-St-92627/home/4568867,OC21150644,33.6435855,-117.93501459999999,5.0,3.8867742454296894
188,2022 Baltra Pl,Costa Mesa,CA,92626,1579000,4,2.5,2580.0,7500.0,1964.0,44.0,612.0,http://www.redfin.com/CA/Costa-Mesa/2022-Baltra-Pl-92626/home/3699124,PW21146349,33.6760237,-117.94190220000002,5.333,3.8867742454296894
189,20552 Lavonne Ln,Huntington Beach,CA,92646,1895000,4,3.5,2457.0,6944.0,1965.0,45.0,771.0,http://www.redfin.com/CA/Huntington-Beach/20552-Lavonne-Ln-92646/home/3812668,OC21148482,33.664309100000004,-117.9493844,8.667,4.096401306419876
190,547 Santa Ana Ave,Newport Beach,CA,92663,2950000,3,2.0,2101.0,5875.0,1948.0,51.0,1404.0,http://www.redfin.com/CA/Newport-Beach/547-Santa-Ana-Ave-92663/home/4585669,NP21144322,33.6275146,-117.9212616,7.333,4.211687138516407
191,3115 Samoa Pl,Costa Mesa,CA,92626,935000,3,2.0,1277.0,6100.0,1957.0,54.0,732.0,http://www.redfin.com/CA/Costa-Mesa/3115-Samoa-Pl-92626/home/3694126,PW21139569,33.6834119,-117.9275433,5.667,3.8867742454296894
192,1896 Rhodes Dr,Costa Mesa,CA,92626,1415000,5,2.5,2538.0,9130.0,1963.0,55.0,558.0,http://www.redfin.com/CA/Costa-Mesa/1896-Rhodes-Dr-92626/home/3697659,OC21128998,33.674645899999994,-117.9361817,5.333,3.8867742454296894
193,2705 Starbird Dr,Costa Mesa,CA,92626,2299800,5,3.75,3005.0,6000.0,1975.0,59.0,765.0,http://www.redfin.com/CA/Costa-Mesa/2705-Starbird-Dr-92626/home/4554983,OC21136381,33.6690811,-117.9279895,5.333,3.8867742454296894
194,534 Westminster Ave,Newport Beach,CA,92663,3299800,5,5.5,4426.0,6375.0,2011.0,63.0,746.0,http://www.redfin.com/CA/Newport-Beach/534-Westminster-Ave-92663/home/4585464,WS21133470,33.628071899999995,-117.9227719,7.333,4.211687138516407
195,34 Ebb Tide,Newport Beach,CA,92663,1900000,3,3.5,2122.0,3920.0,2020.0,80.0,895.0,http://www.redfin.com/CA/Newport-Beach/34-Ebb-Tide-Cir-92663/home/175267173,IV21120136,33.631001399999995,-117.9312403,7.333,4.211687138516407
196,1589 Orange Ave,Costa Mesa,CA,92627,1290000,2,1.0,1000.0,6098.0,1946.0,100.0,1290.0,http://www.redfin.com/CA/Costa-Mesa/1589-Orange-Ave-92627/home/161039220,NP21103881,33.6323706,-117.9219939,7.333,3.8867742454296894
197,1578 San Bernardino Pl,Costa Mesa,CA,92627,2949000,4,4.75,3300.0,7841.0,2004.0,232.0,894.0,http://www.redfin.com/CA/Costa-Mesa/1578-San-Bernardino-Pl-92627/home/4591518,OC21000153,33.629038200000004,-117.91782890000002,7.333,3.8867742454296894
198,508 WESTMINSTER Ave,Newport Beach,CA,92663,2860000,5,5.5,5152.0,6375.0,2005.0,282.0,555.0,http://www.redfin.com/CA/Newport-Beach/508-Westminster-Ave-92663/home/5899393,OC20237643,33.627432,-117.92341270000001,7.333,4.211687138516407
199,6861 Via Kannela,Stanton,CA,90680,821000,3,2.0,1470.0,6000.0,1978.0,4.0,559.0,http://www.redfin.com/CA/Stanton/6861-Via-Kannela-90680/home/3672173,PW21183207,33.8055487,-118.01364540000002,4.333,3.7669248195563987
200,11031 Ticonderoga Dr,Los Alamitos,CA,90720,1399999,5,3.0,2111.0,7900.0,1955.0,5.0,663.0,http://www.redfin.com/CA/Los-Alamitos/11031-Ticonderoga-Dr-90720/home/3938080,OC21181401,33.80243770000001,-118.04914029999999,8.75,1.9524617996604414
201,10450 Rose Ann Cir,Cypress,CA,90630,1399900,5,3.0,3209.0,7022.0,2005.0,9.0,436.0,http://www.redfin.com/CA/Cypress/10450-Rose-Ann-Cir-90630/home/5955581,PW21157570,33.8111776,-118.0470136,8.5,1.7945803672907819
202,11260 Fichot Way,Cypress,CA,90630,599000,2,1.5,1392.0,2104.0,1974.0,9.0,430.0,http://www.redfin.com/CA/Cypress/11260-Fichot-Way-90630/home/3944770,AR21178881,33.7989437,-118.01762520000001,9.333,1.7945803672907819
203,5865 Rexford Ave,Cypress,CA,90630,1050000,4,3.0,2800.0,5520.0,1968.0,10.0,375.0,http://www.redfin.com/CA/Cypress/5865-Rexford-Ave-90630/home/3966316,PW21176474,33.8114073,-118.0306619,8.333,1.7945803672907819
204,9791 Lee St,Cypress,CA,90630,799000,3,2.0,1381.0,6900.0,1965.0,16.0,579.0,http://www.redfin.com/CA/Cypress/9791-Lee-St-90630/home/3669757,PW21173446,33.8198371,-118.0279174,8.333,1.7945803672907819
205,5931 Orange Ave,Cypress,CA,90630,780000,3,1.5,1131.0,6000.0,1962.0,19.0,690.0,http://www.redfin.com/CA/Cypress/5931-Orange-Ave-90630/home/3991795,RS21170157,33.8246079,-118.0294269,8.333,1.7945803672907819
206,10711 Pamela St,Cypress,CA,90630,899900,4,2.0,1635.0,6600.0,1965.0,19.0,550.0,http://www.redfin.com/CA/Cypress/10711-Pamela-St-90630/home/3669730,OC21170045,33.806956799999995,-118.012822,4.333,1.7945803672907819
207,6574 Ulithi St,Cypress,CA,90630,1170000,4,3.75,2361.0,5100.0,2005.0,25.0,496.0,http://www.redfin.com/CA/Cypress/6574-Ulithi-St-90630/home/3943040,PW21165475,33.793553700000004,-118.01838000000001,9.333,1.7945803672907819
208,6433 Bataan St,Cypress,CA,90630,849900,3,2.0,1400.0,5000.0,1972.0,25.0,607.0,http://www.redfin.com/CA/Cypress/6433-Bataan-St-90630/home/3944224,OC21162818,33.7954249,-118.02114750000001,9.333,1.7945803672907819
209,11671 Luzon St,Cypress,CA,90630,1050000,4,3.0,2136.0,6175.0,1970.0,29.0,492.0,http://www.redfin.com/CA/Cypress/11671-Luzon-St-90630/home/3942120,OC21160325,33.7930842,-118.02723130000001,9.333,1.7945803672907819
210,4232 Pearl Cir,Cypress,CA,90630,775000,3,2.0,1318.0,6785.0,1963.0,31.0,588.0,http://www.redfin.com/CA/Cypress/4232-Pearl-Cir-90630/home/7482535,PW21161394,33.8390894,-118.0593392,6.0,1.7945803672907819
211,6461 Cantiles Ave,Cypress,CA,90630,1080000,4,2.5,2729.0,5219.0,1974.0,35.0,396.0,http://www.redfin.com/CA/Cypress/6461-Cantiles-Ave-90630/home/3943329,MB21153444,33.7991641,-118.0207798,8.333,1.7945803672907819
212,4204 Via Verde,Cypress,CA,90630,888888,3,2.0,1536.0,5376.0,1967.0,69.0,579.0,http://www.redfin.com/CA/Cypress/4204-Via-Verde-90630/home/3984167,PW21128752,33.822887200000004,-118.0595679,8.5,1.7945803672907819
213,8812 Belday St,Cypress,CA,90630,792000,3,2.0,1258.0,7205.0,1960.0,96.0,630.0,http://www.redfin.com/CA/Cypress/8812-Belday-St-90630/home/4025016,21-732918,33.8341657,-118.0449325,7.0,1.7945803672907819
214,4252 Pearl Cir,Cypress,CA,90630,815000,4,2.0,1451.0,7575.0,1963.0,129.0,562.0,http://www.redfin.com/CA/Cypress/4252-Pearl-Cir-90630/home/4023902,PW21079981,33.8390817,-118.05888190000002,6.667,1.7945803672907819
215,33091 Big Sur St,Dana Point,CA,92629,1195000,3,2.0,1620.0,7245.0,1962.0,2.0,738.0,http://www.redfin.com/CA/Dana-Point/33091-Big-Sur-St-92629/home/4966718,OC21183986,33.4823142,-117.6892023,6.333,3.8964569426405293
216,24351 Titus Dr,Dana Point,CA,92629,1525000,4,2.5,2376.0,6825.0,1984.0,3.0,642.0,http://www.redfin.com/CA/Dana-Point/24351-Titus-Dr-92629/home/4967104,NP21150452,33.4865779,-117.70482859999998,7.667,3.8964569426405293
217,33801 El Encanto,Dana Point,CA,92629,3250500,5,4.5,3300.0,4750.0,1963.0,4.0,985.0,http://www.redfin.com/CA/Dana-Point/33801-El-Encanto-Ave-92629/home/4984237,OC21182683,33.4717668,-117.7027666,6.333,3.8964569426405293
218,24602 Jeremiah Dr,Dana Point,CA,92629,1325000,4,2.5,2067.0,5880.0,1983.0,5.0,641.0,http://www.redfin.com/CA/Dana-Point/24602-Jeremiah-Dr-92629/home/4966963,NP21178287,33.4860966,-117.70049660000001,7.667,3.8964569426405293
219,53 Ritz Cv,Dana Point,CA,92629,9995000,4,6.0,6027.0,11200.0,2021.0,9.0,1658.0,http://www.redfin.com/CA/Dana-Point/53-Ritz-Cove-Dr-92629/home/4960852,OC21148120,33.4804419,-117.721763,7.667,3.8964569426405293
220,35 Regina,Dana Point,CA,92629,1271000,3,2.5,1890.0,4200.0,1994.0,9.0,672.0,http://www.redfin.com/CA/Dana-Point/35-Regina-92629/home/4961455,OC21178290,33.485807300000005,-117.7073489,7.667,3.8964569426405293
221,33661 Flying Jib Dr,Dana Point,CA,92629,2295000,3,2.5,2179.0,4510.0,1973.0,16.0,1053.0,http://www.redfin.com/CA/Dana-Point/33661-Flying-Jib-Dr-92629/home/4956156,LG21172820,33.4741149,-117.7076616,6.333,3.8964569426405293
222,32765 Matthew Dr,Dana Point,CA,92629,1449000,4,3.0,2455.0,7770.0,1985.0,18.0,590.0,http://www.redfin.com/CA/Dana-Point/32765-Matthew-Dr-92629/home/4967738,OC21171755,33.4870563,-117.7039351,7.667,3.8964569426405293
223,24701 Camarillo St,Dana Point,CA,92629,1399000,4,2.5,2105.0,7130.0,1971.0,19.0,665.0,http://www.redfin.com/CA/Dana-Point/24701-Camarillo-St-92629/home/4964001,P1-6009,33.480473499999995,-117.69884850000001,7.667,3.8964569426405293
224,23965 Leeward Dr,Dana Point,CA,92629,2425000,3,2.5,2243.0,8036.0,1972.0,19.0,1081.0,http://www.redfin.com/CA/Dana-Point/23965-Leeward-Dr-92629/home/4957450,OC21170115,33.478722600000005,-117.7114271,6.333,3.8964569426405293
225,7 Antigua,Dana Point,CA,92629,1350000,3,2.5,1955.0,2800.0,1989.0,20.0,691.0,http://www.redfin.com/CA/Dana-Point/7-Antigua-92629/home/4960615,LG21169276,33.4848008,-117.7076697,7.667,3.8964569426405293
226,34551 Scenic Dr,Dana Point,CA,92629,18000000,8,5.75,4500.0,42192.0,1939.0,30.0,4000.0,http://www.redfin.com/CA/Dana-Point/34551-Scenic-Dr-92629/home/21937259,NP21162379,33.4606675,-117.7111068,6.333,3.8964569426405293
227,32702 Seven Seas Dr,Dana Point,CA,92629,3750000,5,5.5,3867.0,14797.0,1962.0,43.0,970.0,http://www.redfin.com/CA/Dana-Point/32702-7-Seas-Dr-92629/home/4954478,OC21150544,33.4887784,-117.7279679,7.667,3.8964569426405293
228,33944 Calle La Primavera,Dana Point,CA,92629,1550000,3,2.5,2468.0,2100.0,1990.0,45.0,628.0,http://www.redfin.com/CA/Dana-Point/33944-Calle-La-Primavera-92629/home/4986639,PW21146038,33.469645,-117.688847,6.333,3.8964569426405293
229,33811 Chula Vista Ave,Dana Point,CA,92624,3499999,4,3.25,4109.0,6000.0,1982.0,46.0,852.0,http://www.redfin.com/CA/Dana-Point/33811-Chula-Vista-Ave-92629/home/4984202,OC21147227,33.471637699999995,-117.7064783,6.333,3.8964569426405293
230,36 Ritz Cove Dr,Dana Point,CA,92629,8495000,4,4.5,4730.0,7161.0,2001.0,51.0,1796.0,http://www.redfin.com/CA/Dana-Point/36-Ritz-Cove-Dr-92629/home/4960768,OC21142788,33.4778174,-117.7209353,7.667,3.8964569426405293
231,92 S La Senda Dr,Laguna Beach,CA,92651,10950000,4,4.0,5400.0,8284.0,2005.0,58.0,2028.0,http://www.redfin.com/CA/Laguna-Beach/92-S-La-Senda-Dr-92651/home/3267504,LG21136390,33.4869242,-117.73296189999999,9.0,9.074331365057311
232,23512 Seaward Isle,Dana Point,CA,92629,9995000,5,7.5,6097.0,8424.0,2019.0,66.0,1639.0,http://www.redfin.com/CA/Dana-Point/23512-Seaward-Isle-92629/home/4956412,LG21131611,33.4734876,-117.7189645,6.333,3.8964569426405293
233,33 Monarch Bay Dr,Dana Point,CA,92629,20995000,5,6.0,10900.0,18400.0,2003.0,75.0,1926.0,http://www.redfin.com/CA/Dana-Point/33-Monarch-Bay-Dr-92629/home/4954987,LG21123419,33.48425,-117.72657040000001,7.667,3.8964569426405293
234,34055 Crystal Lantern St,Dana Point,CA,92629,1395000,3,3.0,2100.0,2250.0,1988.0,76.0,664.0,http://www.redfin.com/CA/Dana-Point/34055-Crystal-Lantern-92629/home/4985704,OC21122300,33.4682948,-117.69021049999999,6.333,3.8964569426405293
235,33011 Buccaneer St,Dana Point,CA,92629,1150000,4,2.5,2000.0,5600.0,1976.0,78.0,575.0,http://www.redfin.com/CA/Dana-Point/33011-Buccaneer-St-92629/home/4964904,OC21121464,33.4833541,-117.70642079999999,7.667,3.8964569426405293
236,22802 Seaway Dr,Laguna Niguel,CA,92677,5780000,5,4.5,5400.0,11250.0,1992.0,81.0,1070.0,http://www.redfin.com/CA/Laguna-Niguel/22802-Seaway-Dr-92677/home/4940482,OC21119057,33.499111,-117.7312438,7.667,1.9578898298500507
237,25 Bay Dr,Laguna Beach,CA,92651,29900000,4,4.5,7000.0,10840.0,2003.0,110.0,4271.0,http://www.redfin.com/CA/Laguna-Beach/25-Bay-Dr-92651/home/3267376,NP21094163,33.4888076,-117.73405290000001,9.0,9.074331365057311
238,39 Strand Beach Dr,Dana Point,CA,92629,26500000,6,7.0,9300.0,10253.0,2017.0,131.0,2849.0,http://www.redfin.com/CA/Dana-Point/39-Strand-Beach-Dr-92629/home/7204323,OC21060662,33.4675641,-117.7163986,6.333,3.8964569426405293
239,1 White Water Ln,Dana Point,CA,92629,15250000,6,8.0,9005.0,13875.0,2012.0,167.0,1694.0,http://www.redfin.com/CA/Dana-Point/1-White-Water-Dr-92629/home/7204307,NP21021996,33.4674989,-117.7156655,6.333,3.8964569426405293
240,57 Monarch Bay Dr,Dana Point,CA,92629,21500000,5,5.5,6400.0,22905.0,2014.0,331.0,3359.0,http://www.redfin.com/CA/Dana-Point/57-Monarch-Bay-Dr-92629/home/4954962,LG20200110,33.484494899999994,-117.72875420000001,7.667,3.8964569426405293
241,31 Strand Beach Dr,Dana Point,CA,92629,23500000,4,5.0,7852.0,10846.0,2011.0,362.0,2993.0,http://www.redfin.com/CA/Dana-Point/31-Strand-Beach-Dr-92629/home/7219580,NP20167469,33.466755,-117.715883,6.333,3.8964569426405293
242,17 Beach View Ave,Dana Point,CA,92629,18250000,5,8.0,8329.0,9372.0,2021.0,919.0,2191.0,http://www.redfin.com/CA/Dana-Point/17-Beach-View-Ave-92629/home/7215536,OC19035227,33.4654429,-117.7144664,6.333,3.8964569426405293
243,9889 Raritan Ave,Fountain Valley,CA,92708,1325000,4,2.5,2626.0,6300.0,1973.0,1.0,505.0,http://www.redfin.com/CA/Fountain-Valley/9889-Raritan-Ave-92708/home/3731956,OC21185277,33.7318467,-117.9565003,9.333,2.50670499763353
244,9441 El Blanco Ave,Fountain Valley,CA,92708,939000,4,2.25,1923.0,7659.0,1965.0,2.0,488.0,http://www.redfin.com/CA/Fountain-Valley/9441-El-Blanco-Ave-92708/home/3852633,OC21153824,33.7076842,-117.964142,9.333,2.50670499763353
245,17782 Joshua Cir,Fountain Valley,CA,92708,1699900,6,4.0,3369.0,7200.0,1969.0,3.0,505.0,http://www.redfin.com/CA/Fountain-Valley/17782-Joshua-Cir-92708/home/3851854,PW21181855,33.7045289,-117.9707768,9.333,2.50670499763353
246,17835 Ash St,Fountain Valley,CA,92708,1189000,4,2.5,2632.0,7207.0,1963.0,3.0,452.0,http://www.redfin.com/CA/Fountain-Valley/17835-Ash-St-92708/home/3854962,OC21183506,33.7039579,-117.96530890000001,9.333,2.50670499763353
247,9872 Flamingo Ave,Fountain Valley,CA,92708,1269000,6,3.5,2960.0,7200.0,1964.0,3.0,429.0,http://www.redfin.com/CA/Fountain-Valley/9872-Flamingo-Ave-92708/home/3821860,OC21164740,33.6963722,-117.9565232,8.333,2.50670499763353
248,9857 Red River Cir,Fountain Valley,CA,92708,1474900,4,3.0,2931.0,7112.0,1977.0,4.0,503.0,http://www.redfin.com/CA/Fountain-Valley/9857-Red-River-Cir-92708/home/3826742,OC21180984,33.6902325,-117.95661470000002,8.333,2.50670499763353
249,18966 Mount Demeter Cir,Fountain Valley,CA,92708,1500000,4,3.0,2778.0,7351.0,1977.0,4.0,540.0,http://www.redfin.com/CA/Fountain-Valley/18966-Mt-Demeter-Cir-92708/home/3831094,IG21182167,33.6873091,-117.972241,9.333,2.50670499763353
250,18573 Lime Cir,Fountain Valley,CA,92708,1099000,4,2.5,1808.0,7316.0,1965.0,5.0,608.0,http://www.redfin.com/CA/Fountain-Valley/18573-Lime-Cir-92708/home/3822821,OC21181585,33.6930298,-117.9612135,8.333,2.50670499763353
251,18889 Capense St,Fountain Valley,CA,92708,995000,4,1.75,1943.0,5900.0,1970.0,5.0,512.0,http://www.redfin.com/CA/Fountain-Valley/18889-Capense-St-92708/home/3826680,OC21176443,33.6884045,-117.9635014,9.333,2.50670499763353
252,17602 Locust St,Fountain Valley,CA,92708,915000,4,2.5,1875.0,7684.0,1965.0,6.0,488.0,http://www.redfin.com/CA/Fountain-Valley/17602-Locust-St-92708/home/3852212,OC21172175,33.7071934,-117.9656521,9.333,2.50670499763353
253,16767 Silktree St,Fountain Valley,CA,92708,975000,4,2.0,1920.0,6432.0,1970.0,10.0,508.0,http://www.redfin.com/CA/Fountain-Valley/16767-Silktree-St-92708/home/3733506,NP21177309,33.71949470000001,-117.9587196,9.0,2.50670499763353
254,10784 El Plano Ave,Fountain Valley,CA,92708,669900,3,1.5,1329.0,2025.0,1964.0,10.0,504.0,http://www.redfin.com/CA/Fountain-Valley/10784-El-Plano-Ave-92708/home/3867057,OC21170704,33.7150998,-117.94094750000001,8.667,2.50670499763353
255,15951 Royale Ct,Fountain Valley,CA,92708,649000,3,2.25,1402.0,1302.0,1973.0,11.0,463.0,http://www.redfin.com/CA/Fountain-Valley/15951-Royale-Ct-92708/home/3520240,PW21177476,33.731604,-117.93860719999999,8.667,2.50670499763353
256,16221 Mt Baden-Powell,Fountain Valley,CA,92708,1195000,4,2.5,2184.0,6064.0,1971.0,12.0,547.0,http://www.redfin.com/CA/Fountain-Valley/16221-Mt-Baden-Powell-St-92708/home/3742649,PW21175857,33.7277281,-117.9369368,4.667,2.50670499763353
257,9187 Mcbride River Ave,Fountain Valley,CA,92708,1439000,5,3.0,3020.0,7200.0,1977.0,17.0,476.0,http://www.redfin.com/CA/Fountain-Valley/9187-McBride-River-Ave-92708/home/3824215,OC21161335,33.6947751,-117.9682145,9.333,2.50670499763353
258,10355 Morning Glory Ave,Fountain Valley,CA,92708,989000,3,2.0,1270.0,7200.0,1964.0,18.0,779.0,http://www.redfin.com/CA/Fountain-Valley/10355-Morning-Glory-Ave-92708/home/3528998,PW21163062,33.7313841,-117.9485378,8.667,2.50670499763353
259,9049 Lemongrass Ct,Fountain Valley,CA,92708,1899000,5,4.0,3695.0,7047.0,2011.0,18.0,514.0,http://www.redfin.com/CA/Fountain-Valley/9049-Lemongrass-Ct-92708/home/45376452,OC21171261,33.7001976,-117.9707997,9.333,2.50670499763353
260,9782 Scanlan Ct,Fountain Valley,CA,92708,825000,3,2.25,1887.0,1768.0,1986.0,19.0,437.0,http://www.redfin.com/CA/Fountain-Valley/9782-Scanlan-Ct-92708/home/3832647,OC21170668,33.700278000000004,-117.958047,8.333,2.50670499763353
261,10458 Placer River Cir,Fountain Valley,CA,92708,1278888,5,3.0,2620.0,6066.0,1973.0,23.0,488.0,http://www.redfin.com/CA/Fountain-Valley/10458-Placer-River-Cir-92708/home/3819043,OC21167254,33.694443299999996,-117.94657009999999,8.333,2.50670499763353
262,10288 Circulo De Juarez,Fountain Valley,CA,92708,1849000,5,5.5,3847.0,6880.0,2000.0,28.0,481.0,http://www.redfin.com/CA/Fountain-Valley/10288-Circulo-De-Juarez-92708/home/3862799,PW21163189,33.7115037,-117.9492929,8.667,2.50670499763353
263,16937 Mount Hope St,Fountain Valley,CA,92708,1299000,4,2.25,2340.0,7200.0,1976.0,38.0,555.0,http://www.redfin.com/CA/Fountain-Valley/16937-Mt-Hope-St-92708/home/3736152,OC21154828,33.7174685,-117.9330696,4.667,2.50670499763353
264,9668 Talbert Ave,Fountain Valley,CA,92708,950000,3,2.0,1463.0,7200.0,1968.0,39.0,649.0,http://www.redfin.com/CA/Fountain-Valley/9668-Talbert-Ave-92708/home/3823907,PW21153064,33.7013184,-117.9600695,8.333,2.50670499763353
265,18241 Santa Sophia Cir,Fountain Valley,CA,92708,1549000,5,2.75,2620.0,6000.0,1970.0,44.0,591.0,http://www.redfin.com/CA/Fountain-Valley/18241-Santa-Sophia-Cir-92708/home/3552833,OC21147736,33.6977837,-117.9741628,9.333,2.50670499763353
266,17928 Toiyabe Cir,Fountain Valley,CA,92708,1275000,5,2.5,2918.0,8470.0,1976.0,52.0,437.0,http://www.redfin.com/CA/Fountain-Valley/17928-Toiyabe-Cir-92708/home/3856069,PW21143419,33.702710700000004,-117.9547156,9.333,2.50670499763353
267,1224 Frances Ave,Fullerton,CA,92831,1150000,3,2.5,1752.0,6384.0,1960.0,3.0,656.0,http://www.redfin.com/CA/Fullerton/1224-Frances-Ave-92831/home/4076977,OC21182734,33.8825141,-117.9185154,6.0,6.69140839872717
268,215 N Princeton Ave,Fullerton,CA,92831,638000,3,2.0,1888.0,6250.0,1949.0,1.0,338.0,http://www.redfin.com/CA/Fullerton/215-N-Princeton-Ave-92831/home/3186786,DW21185645,33.873011,-117.91330400000001,6.0,6.69140839872717
269,216 W Whiting Ave,Fullerton,CA,92832,724000,2,1.0,880.0,7000.0,1919.0,2.0,823.0,http://www.redfin.com/CA/Fullerton/216-W-Whiting-Ave-92832/home/3182841,PW21182710,33.873149299999994,-117.9272114,5.333,6.69140839872717
270,2842 Treeview Pl,Fullerton,CA,92835,950000,4,2.25,2000.0,7200.0,1977.0,2.0,475.0,http://www.redfin.com/CA/Fullerton/2842-Treeview-Pl-92835/home/4193555,PW21183484,33.9028405,-117.87869140000001,8.0,6.69140839872717
271,1013 El Dorado Dr,Fullerton,CA,92835,850000,2,1.75,1563.0,8755.0,1958.0,2.0,544.0,http://www.redfin.com/CA/Fullerton/1013-N-El-Dorado-Dr-92835/home/3155579,PW21184426,33.8819264,-117.93132879999999,5.333,6.69140839872717
272,304 N Sweet Ave,Fullerton,CA,92833,789000,3,2.0,1275.0,7172.0,1954.0,3.0,619.0,http://www.redfin.com/CA/Fullerton/304-N-Sweet-Ave-92833/home/3175566,PW21181236,33.8727275,-117.944648,7.333,6.69140839872717
273,2305 W Olive Ave,Fullerton,CA,92833,799999,3,2.0,1485.0,8514.0,1964.0,3.0,539.0,http://www.redfin.com/CA/Fullerton/2305-W-Olive-Ave-92833/home/3167621,DW21183866,33.8625852,-117.96844329999999,4.333,6.69140839872717
274,630 W Elm Ave,Fullerton,CA,92832,650000,3,1.75,1176.0,6030.0,1953.0,3.0,553.0,http://www.redfin.com/CA/Fullerton/630-W-Elm-Ave-92832/home/3175353,EV21180397,33.8638209,-117.9364105,5.0,6.69140839872717
275,344 Montessori Ave,Placentia,CA,92870,899988,4,2.5,2016.0,7000.0,1976.0,5.0,446.0,http://www.redfin.com/CA/Placentia/344-Montessori-Ave-92870/home/4181522,PW21182066,33.901974700000004,-117.87008449999999,8.0,3.801327570237728
276,601 S Pine Dr,Fullerton,CA,92833,699900,4,2.0,1157.0,6000.0,1954.0,5.0,605.0,http://www.redfin.com/CA/Fullerton/601-S-Pine-Dr-92833/home/3168554,RS21181520,33.863979799999996,-117.96734509999999,4.0,6.69140839872717
277,2607 Shawn Ln,Fullerton,CA,92831,899000,4,2.0,1459.0,8690.0,1963.0,5.0,616.0,http://www.redfin.com/CA/Fullerton/2607-Shawn-Ln-92831/home/3161991,OC21181507,33.8940059,-117.8824453,7.0,6.69140839872717
278,622 Tangelo Way,Fullerton,CA,92832,1050000,4,2.75,2381.0,2894.0,2014.0,5.0,441.0,http://www.redfin.com/CA/Fullerton/622-Tangelo-Way-92832/home/58551388,RS21180862,33.864110700000005,-117.9411242,5.0,6.69140839872717
279,407 Jacaranda Pl,Fullerton,CA,92832,779000,2,2.0,1120.0,3900.0,1924.0,5.0,696.0,http://www.redfin.com/CA/Fullerton/407-Jacaranda-Pl-92832/home/3181284,PW21180915,33.87466679999999,-117.9312618,5.333,6.69140839872717
280,613 Joan Way,Placentia,CA,92870,1100000,4,3.0,2352.0,7000.0,1963.0,7.0,468.0,http://www.redfin.com/CA/Placentia/613-Joan-Way-92870/home/4193820,SB21180256,33.8947146,-117.87512050000001,8.0,3.801327570237728
281,1790 N Mountain View Pl,Fullerton,CA,92831,1345000,4,3.0,3007.0,12632.0,1975.0,9.0,447.0,http://www.redfin.com/CA/Fullerton/1790-N-Mountain-View-Pl-92831/home/4076258,P1-6202,33.887692799999996,-117.8924706,8.0,6.69140839872717
282,2297 Ardemore Dr,Fullerton,CA,92833,1148000,4,3.0,2293.0,11200.0,1981.0,10.0,501.0,http://www.redfin.com/CA/Fullerton/2297-Ardemore-Dr-92833/home/4093493,PW21178593,33.9011968,-117.9561342,8.0,6.69140839872717
283,312 N Orchard Ave,Fullerton,CA,92833,749900,3,1.5,1600.0,7193.0,1954.0,10.0,469.0,http://www.redfin.com/CA/Fullerton/312-N-Orchard-Ave-92833/home/3175062,PW21178181,33.8729466,-117.9464557,7.333,6.69140839872717
284,727 W Las Palmas Dr,Fullerton,CA,92835,3450000,4,5.5,6687.0,34848.0,2006.0,10.0,516.0,http://www.redfin.com/CA/Fullerton/727-W-Las-Palmas-Dr-92835/home/4106621,CV21177374,33.9096098,-117.94142169999999,8.333,6.69140839872717
285,2800 Woodbine Ave,Fullerton,CA,92835,899000,4,2.75,1999.0,10000.0,1960.0,10.0,450.0,http://www.redfin.com/CA/Fullerton/2800-Woodbine-Ave-92835/home/4080035,PW21176388,33.901482,-117.9025182,6.0,6.69140839872717
286,612 Princeton Cir W,Fullerton,CA,92831,879999,3,2.0,2159.0,6124.0,1950.0,10.0,408.0,http://www.redfin.com/CA/Fullerton/612-Princeton-Cir-W-92831/home/3157727,RS21178073,33.877334600000005,-117.91350359999998,6.0,6.69140839872717
287,1451 N Richman Knl,Fullerton,CA,92835,3495000,4,4.0,3144.0,102540.0,1950.0,10.0,1112.0,http://www.redfin.com/CA/Fullerton/1451-N-Richman-Knl-92835/home/4072172,PW21177782,33.8887985,-117.9418565,8.333,6.69140839872717
288,1246 N Lemon St,Fullerton,CA,92831,875000,2,1.5,1826.0,4800.0,1954.0,11.0,479.0,http://www.redfin.com/CA/Fullerton/1246-N-Lemon-St-92831/home/4076937,PW21177793,33.88323320000001,-117.91984270000002,6.0,6.69140839872717
289,861 Arbolado Dr,Fullerton,CA,92835,2399000,5,4.5,3934.0,23920.0,1968.0,11.0,610.0,http://www.redfin.com/CA/Fullerton/861-Arbolado-Dr-92835/home/4111500,DW21176897,33.9040834,-117.91844679999998,6.333,6.69140839872717
290,2840 Terraza Pl,Fullerton,CA,92835,2680000,5,4.5,4778.0,21280.0,1960.0,13.0,561.0,http://www.redfin.com/CA/Fullerton/2840-Terraza-Pl-92835/home/4105460,OC21173798,33.9030899,-117.93657069999999,8.333,6.69140839872717
291,805 E Union Ave,Fullerton,CA,92831,888000,3,2.0,1405.0,7434.0,1950.0,13.0,632.0,http://www.redfin.com/CA/Fullerton/805-E-Union-Ave-92831/home/3157821,CV21175612,33.878722100000005,-117.9116956,6.0,6.69140839872717
292,1101 Kenwood Pl,Fullerton,CA,92831,1595000,4,2.5,2866.0,19341.0,1974.0,13.0,557.0,http://www.redfin.com/CA/Fullerton/1101-Kenwood-Pl-92831/home/3161666,PW21113387,33.88660479999999,-117.90846869999999,6.0,6.69140839872717
293,2220 Vista Del Sol,Fullerton,CA,92831,689900,3,2.5,1896.0,1768.0,1974.0,16.0,364.0,http://www.redfin.com/CA/Fullerton/2220-Vista-Del-Sol-92831/home/4088049,PW21173417,33.891728,-117.89126499999999,7.0,6.69140839872717
294,204 Martha Pl,Fullerton,CA,92833,739900,3,1.0,1243.0,6540.0,1947.0,16.0,595.0,http://www.redfin.com/CA/Fullerton/204-N-Martha-Pl-92833/home/3165454,PW21173190,33.8709866,-117.95402920000001,7.333,6.69140839872717
295,2462 Santa Clara Ave,Fullerton,CA,92831,749900,3,2.0,1253.0,6000.0,1958.0,18.0,598.0,http://www.redfin.com/CA/Fullerton/2462-Santa-Clara-Ave-92831/home/3190730,CV21170192,33.868415500000005,-117.8860699,6.0,6.69140839872717
296,1501 E Brookdale Pl,Fullerton,CA,92831,899000,4,3.0,1821.0,11025.0,1955.0,19.0,494.0,http://www.redfin.com/CA/Fullerton/1501-E-Brookdale-Pl-92831/home/3158782,OC21112955,33.876867600000004,-117.90057279999999,8.0,6.69140839872717
297,1212 E Commonwealth Ave,Fullerton,CA,92831,799000,3,2.0,1183.0,6100.0,1952.0,19.0,675.0,http://www.redfin.com/CA/Fullerton/1212-E-Commonwealth-Ave-92831/home/3188578,PW21169997,33.870264,-117.90620290000001,6.0,6.69140839872717
298,1417 W Malvern Ave,Fullerton,CA,92833,755888,3,1.75,1265.0,5880.0,1954.0,20.0,598.0,http://www.redfin.com/CA/Fullerton/1417-W-Malvern-Ave-92833/home/3171304,PW21169656,33.875642600000006,-117.94754250000001,7.333,6.69140839872717
299,406 N Roosevelt Ave,Fullerton,CA,92832,729900,2,1.0,1035.0,7609.0,1948.0,20.0,705.0,http://www.redfin.com/CA/Fullerton/406-N-Roosevelt-Ave-92832/home/3173827,PW21169105,33.8742335,-117.9408039,5.333,6.69140839872717
300,401 Cienaga Dr,Fullerton,CA,92835,885000,4,2.0,2343.0,8250.0,1966.0,23.0,378.0,http://www.redfin.com/CA/Fullerton/401-Cienaga-Dr-92835/home/4111946,PW21167359,33.9163792,-117.9253807,5.25,6.69140839872717
301,2040 Redondo Pl,Fullerton,CA,92835,1499000,4,2.5,2496.0,20800.0,1962.0,24.0,601.0,http://www.redfin.com/CA/Fullerton/2040-Redondo-Pl-92835/home/4104012,PW21153631,33.8929725,-117.94121580000001,8.333,6.69140839872717
302,2110 Skyline Dr,Fullerton,CA,92831,2500000,3,3.5,2430.0,32550.0,1963.0,24.0,1029.0,http://www.redfin.com/CA/Fullerton/2110-Skyline-Dr-92831/home/4087675,OC21161269,33.889888799999994,-117.90711840000002,8.0,6.69140839872717
303,1828 Brooke Ln,Fullerton,CA,92833,1199000,4,2.5,2610.0,7425.0,1989.0,24.0,459.0,http://www.redfin.com/CA/Fullerton/1828-Brooke-Ln-92833/home/4099314,SB21166731,33.8994299,-117.9584222,7.333,6.69140839872717
304,1401 Avenida Antigua,Fullerton,CA,92833,899000,4,1.75,1828.0,12825.0,1972.0,24.0,492.0,http://www.redfin.com/CA/Fullerton/1401-Avenida-Antigua-92833/home/4092965,OC21159549,33.897690999999995,-117.94931580000001,7.667,6.69140839872717
305,1927 Edinburgh Way,Fullerton,CA,92831,960000,3,2.5,2170.0,5868.0,1995.0,26.0,442.0,http://www.redfin.com/CA/Fullerton/1927-Edinburgh-Way-92831/home/4090265,TR21165076,33.894706,-117.895647,7.0,6.69140839872717
306,1713 W West Ave,Fullerton,CA,92833,865000,4,2.0,1380.0,6000.0,1952.0,30.0,627.0,http://www.redfin.com/CA/Fullerton/1713-West-Ave-92833/home/3168231,PW21161884,33.8659112,-117.9580104,5.0,6.69140839872717
307,1219 W Oak Ave,Fullerton,CA,92833,749000,3,2.0,1545.0,6324.0,1955.0,30.0,485.0,http://www.redfin.com/CA/Fullerton/1219-W-Oak-Ave-92833/home/3176736,PW21162286,33.864611,-117.9466158,4.333,6.69140839872717
308,2155 Teri Pl,Fullerton,CA,92831,830000,4,2.75,1832.0,8736.0,1963.0,30.0,453.0,http://www.redfin.com/CA/Fullerton/2155-Teri-Pl-92831/home/3161984,PW21161275,33.8926856,-117.88537509999999,7.0,6.69140839872717
309,774 Stephens Ave,Fullerton,CA,92833,1299900,4,2.5,2063.0,10649.0,1972.0,34.0,630.0,http://www.redfin.com/CA/Fullerton/774-Stephens-Ave-92833/home/3170910,21-762704,33.8776729,-117.9475768,7.333,6.69140839872717
310,114 N Roosevelt Ave,Fullerton,CA,92832,649900,2,1.0,808.0,6692.0,1947.0,34.0,804.0,http://www.redfin.com/CA/Fullerton/114-N-Roosevelt-Ave-92832/home/3174819,DW21157915,33.8708568,-117.94061140000001,5.333,6.69140839872717
311,912 El Dorado Dr,Fullerton,CA,92832,1030000,3,3.0,2150.0,8000.0,1956.0,39.0,479.0,http://www.redfin.com/CA/Fullerton/912-El-Dorado-Dr-92832/home/3155647,PW21154206,33.880871299999995,-117.9307813,5.333,6.69140839872717
312,342 W Valley View Dr,Fullerton,CA,92835,1349000,3,2.5,3024.0,10500.0,1975.0,39.0,446.0,http://www.redfin.com/CA/Fullerton/342-W-Valley-View-Dr-92835/home/3155613,WS21153967,33.881465999999996,-117.92923400000001,5.333,6.69140839872717
313,325 Marwood Ave,Fullerton,CA,92832,839000,3,2.0,1797.0,6138.0,1927.0,44.0,467.0,http://www.redfin.com/CA/Fullerton/325-N-Marwood-Ave-92832/home/3179826,PW21150379,33.8732244,-117.93673079999999,5.333,6.69140839872717
314,3019 Sunnywood Dr,Fullerton,CA,92835,1224999,4,2.5,2413.0,12810.0,1959.0,45.0,508.0,http://www.redfin.com/CA/Fullerton/3019-Sunnywood-Dr-92835/home/4114922,PW21147913,33.90847479999999,-117.92412209999999,6.333,6.69140839872717
315,1970 Skyline Dr,Fullerton,CA,92831,2950000,5,6.5,6398.0,20038.0,1991.0,46.0,461.0,http://www.redfin.com/CA/Fullerton/1970-Skyline-Dr-92831/home/3161635,PW21147610,33.888578100000004,-117.90828559999999,8.0,6.69140839872717
316,200 N Lee Ave,Fullerton,CA,92833,840000,3,2.0,1445.0,6195.0,1950.0,46.0,581.0,http://www.redfin.com/CA/Fullerton/200-N-Lee-Ave-92833/home/3173016,TR21147471,33.871261499999996,-117.94849209999998,7.333,6.69140839872717
317,2643 Amherst Ave,Fullerton,CA,92831,870000,4,2.0,1459.0,7900.0,1963.0,50.0,596.0,http://www.redfin.com/CA/Fullerton/2643-Amherst-Ave-92831/home/3161962,PW21145036,33.893777,-117.8835439,7.0,6.69140839872717
318,906 W Hill Ave,Fullerton,CA,92832,850000,3,2.0,1715.0,6111.0,1957.0,58.0,496.0,http://www.redfin.com/CA/Fullerton/906-W-Hill-Ave-92832/home/3339142,PW21138194,33.8609073,-117.9405064,5.0,6.69140839872717
319,3517 W Ash Ave,Fullerton,CA,92833,650000,2,2.0,1371.0,6000.0,1952.0,59.0,474.0,http://www.redfin.com/CA/Fullerton/3517-W-Ash-Ave-92833/home/3167133,PW21137955,33.865005700000005,-117.9737967,4.333,6.69140839872717
320,1714 W West Ave,Fullerton,CA,92833,849000,3,2.0,1465.0,6400.0,1952.0,61.0,580.0,http://www.redfin.com/CA/Fullerton/1714-West-Ave-92833/home/3168239,21-752094,33.865469299999994,-117.9580104,5.0,6.69140839872717
321,941 Laguna Rd,Fullerton,LA,92835,1850000,4,3.5,3827.0,25600.0,1961.0,71.0,483.0,http://www.redfin.com/CA/Fullerton/941-Laguna-Rd-92835/home/4105280,320006437,33.9007255,-117.93867579999998,8.333,6.69140839872717
322,2031 Pioneer Ave,Fullerton,CA,92831,2099000,5,6.0,5704.0,22060.0,1979.0,72.0,368.0,http://www.redfin.com/CA/Fullerton/2031-Pioneer-Ave-92831/home/4087881,PW21126617,33.889207899999995,-117.8939125,7.0,6.69140839872717
323,1207 Wilson Ave,Fullerton,CA,92831,2000000,8,6.0,4205.0,7200.0,1960.0,100.0,476.0,http://www.redfin.com/CA/Fullerton/1207-Wilson-Ave-92831/home/4074731,CV21103600,33.881826200000006,-117.8924706,8.0,6.69140839872717
324,1105 E Walnut Ave,Fullerton,CA,92831,1099999,6,5.0,1850.0,6540.0,1951.0,117.0,595.0,http://www.redfin.com/CA/Fullerton/1105-E-Walnut-Ave-92831/home/3188539,OC21088097,33.868479799999996,-117.9084,6.0,6.69140839872717
325,511 W FERN Dr,Fullerton,CA,92832,1950000,4,4.5,3500.0,22216.0,1936.0,168.0,557.0,http://www.redfin.com/CA/Fullerton/511-W-Fern-Dr-92832/home/3179416,PW21047873,33.880536600000006,-117.9336188,5.333,6.69140839872717
326,12212 Corvette St,Garden Grove,CA,92841,685000,3,1.5,1257.0,7200.0,1955.0,1.0,545.0,http://www.redfin.com/CA/Garden-Grove/12212-Corvette-St-92841/home/3652237,PW21185637,33.7852527,-117.9719207,6.667,3.826716061157669
327,12261 Ellen St,Garden Grove,CA,92840,720000,4,2.0,1236.0,7600.0,1953.0,1.0,583.0,http://www.redfin.com/CA/Garden-Grove/12261-Ellen-St-92840/home/3384975,PW21179223,33.784671,-117.9436412,7.667,3.826716061157669
328,176 N Jetty Dr,Orange,CA,92868,765000,4,1.75,1356.0,7200.0,1955.0,2.0,564.0,http://www.redfin.com/CA/Orange/176-N-Jetty-Dr-92868/home/3689349,PW21184860,33.7902642,-117.9017629,4.0,3.559405622145507
329,11431 Gill Dr,Garden Grove,CA,92841,875000,3,2.5,1783.0,11160.0,1957.0,2.0,491.0,http://www.redfin.com/CA/Garden-Grove/11431-Gill-Dr-92841/home/3643659,OC21184344,33.7965218,-117.9716233,6.333,3.826716061157669
330,13852 La Jolla,Garden Grove,CA,92844,440000,2,2.5,1269.0,1406.0,1972.0,2.0,347.0,http://www.redfin.com/CA/Garden-Grove/13852-La-Jolla-Plz-92844/home/3459003,IG21183588,33.760191,-117.95738600000001,8.333,3.826716061157669
331,10415 Orchid Cir,Garden Grove,CA,92840,824900,3,1.5,1674.0,11250.0,1954.0,3.0,493.0,http://www.redfin.com/CA/Garden-Grove/10415-Orchid-Cir-92840/home/3388322,OC21183439,33.791205299999994,-117.9511005,6.667,3.826716061157669
332,12291 Lesley St,Garden Grove,CA,92840,850000,4,2.0,2092.0,7600.0,1953.0,4.0,406.0,http://www.redfin.com/CA/Garden-Grove/12291-Lesley-St-92840/home/3384986,IG21183113,33.7841571,-117.9427031,7.667,3.826716061157669
333,9232 Bixby Ave,Garden Grove,CA,92841,848500,3,2.0,1789.0,10934.0,1954.0,4.0,474.0,http://www.redfin.com/CA/Garden-Grove/9232-Bixby-Ave-92841/home/3652330,PW21182880,33.7851155,-117.97100559999998,6.667,3.826716061157669
334,10133 Andy Reese Ct,Garden Grove,CA,92843,700000,3,2.5,1509.0,2188.0,2001.0,5.0,464.0,http://www.redfin.com/CA/Garden-Grove/10133-Andy-Reese-Ct-92843/home/5847874,OC21181996,33.7736878,-117.95251909999999,7.0,3.826716061157669
335,6561 Cerulean Ave,Garden Grove,CA,92845,868888,4,2.0,1430.0,6000.0,1961.0,5.0,608.0,http://www.redfin.com/CA/Garden-Grove/6561-Cerulean-Ave-92845/home/3623762,PW21181109,33.778681799999994,-118.01865829999998,8.667,3.826716061157669
336,11252 Paloma Ave,Garden Grove,CA,92843,1050000,4,2.75,1803.0,8050.0,1954.0,7.0,582.0,http://www.redfin.com/CA/Garden-Grove/11252-Paloma-Ave-92843/home/3475933,PW21180454,33.7703602,-117.9331154,7.0,3.826716061157669
337,14202 Taft St,Garden Grove,CA,92843,790000,3,1.5,1219.0,6138.0,1959.0,8.0,648.0,http://www.redfin.com/CA/Garden-Grove/14202-Taft-St-92843/home/3470683,OC21179774,33.756756,-117.94225759999999,7.667,3.826716061157669
338,12082 Jennifer Ln,Garden Grove,CA,92840,810000,3,2.0,1644.0,7200.0,1955.0,8.0,493.0,http://www.redfin.com/CA/Garden-Grove/12082-Jennifer-Ln-92840/home/3403534,PW21179730,33.78754050000001,-117.9282412,6.667,3.826716061157669
339,11771 Brookhurst St,Garden Grove,CA,92840,950000,3,2.0,1793.0,8160.0,1953.0,9.0,530.0,http://www.redfin.com/CA/Garden-Grove/11771-Brookhurst-St-92840/home/3648577,PW21178854,33.7916823,-117.95915430000001,6.333,3.826716061157669
340,10480 Radcliff Cir,Westminster,CA,92683,948000,4,3.0,1814.0,6175.0,1963.0,10.0,523.0,http://www.redfin.com/CA/Westminster/10480-Radcliff-Cir-92683/home/3527252,OC21176718,33.740742600000004,-117.94654720000001,8.667,4.784899517110141
341,14441 Brandywyne,Garden Grove,CA,92844,650000,3,2.5,1522.0,1456.0,1981.0,10.0,427.0,http://www.redfin.com/CA/Garden-Grove/14441-Brandywyne-Ter-92844/home/3459247,OC21177751,33.752874,-117.960229,7.667,3.826716061157669
342,13312 Blue Spruce Ave,Garden Grove,CA,92840,685000,3,2.0,1283.0,6000.0,1959.0,10.0,534.0,http://www.redfin.com/CA/Garden-Grove/13312-Blue-Spruce-Ave-92840/home/3951006,OC21178241,33.7781896,-117.90048119999999,4.0,3.826716061157669
343,12092 9th St,Garden Grove,CA,92840,900000,3,1.5,2134.0,12000.0,1954.0,11.0,422.0,http://www.redfin.com/CA/Garden-Grove/12092-9th-St-92840/home/3398751,SW21177741,33.7871391,-117.93217720000001,6.667,3.826716061157669
344,10662 Morningside Dr,Garden Grove,CA,92843,799000,3,1.5,1219.0,6000.0,1958.0,11.0,655.0,http://www.redfin.com/CA/Garden-Grove/10662-Morningside-Dr-92843/home/3470690,OC21176831,33.756195500000004,-117.9433209,7.667,3.826716061157669
345,13381 Beach Terrace Dr,Garden Grove,CA,92844,720000,3,2.0,1348.0,3915.0,1977.0,12.0,534.0,http://www.redfin.com/CA/Garden-Grove/13381-Beach-Terrace-Dr-92844/home/3432701,PW21175758,33.768134,-117.99033899999999,6.0,3.826716061157669
346,12532 Pleasant Pl,Garden Grove,CA,92841,1085000,3,3.0,2473.0,10039.0,1955.0,13.0,439.0,http://www.redfin.com/CA/Garden-Grove/12532-Pleasant-Pl-92841/home/3656466,PW21175117,33.780685399999996,-117.96210579999999,7.0,3.826716061157669
347,6362 Apache Rd,Westminster,CA,92683,850000,4,2.5,1437.0,7245.0,1955.0,16.0,592.0,http://www.redfin.com/CA/Westminster/6362-Apache-Rd-92683/home/3914706,PW21174086,33.772628999999995,-118.01872309999999,6.0,4.784899517110141
348,10252 Bonser Ave,Garden Grove,CA,92840,1300000,5,4.0,2345.0,10017.0,1954.0,16.0,554.0,http://www.redfin.com/CA/Garden-Grove/10252-Bonser-Ave-92840/home/3389119,OC21173946,33.783989299999995,-117.95380039999999,7.667,3.826716061157669
349,5652 Trinette Ave,Garden Grove,CA,92845,898000,3,3.0,1596.0,6000.0,1964.0,16.0,563.0,http://www.redfin.com/CA/Garden-Grove/5652-Trinette-Ave-92845/home/3926639,PW21173827,33.78190170000001,-118.0344584,9.333,3.826716061157669
350,11651 Samuel Dr,Garden Grove,CA,92840,899000,4,2.5,1498.0,7260.0,1959.0,16.0,600.0,http://www.redfin.com/CA/Garden-Grove/11651-Samuel-Dr-92840/home/3404360,PW21173667,33.793141,-117.9295913,7.333,3.826716061157669
351,12371 Magnolia St,Garden Grove,CA,92841,774987,3,2.0,1392.0,8050.0,1960.0,17.0,557.0,http://www.redfin.com/CA/Garden-Grove/12371-Magnolia-St-92841/home/3654516,SW21172082,33.782763700000004,-117.97567269999999,7.0,3.826716061157669
352,13682 Hazel St,Garden Grove,CA,92844,749950,4,2.0,1390.0,7200.0,1962.0,18.0,540.0,http://www.redfin.com/CA/Garden-Grove/13682-Hazel-St-92844/home/3443686,OC21171647,33.763913,-117.9738425,6.0,3.826716061157669
353,12461 Tunstall Cir,Garden Grove,CA,92845,848000,4,2.0,1973.0,6400.0,1964.0,20.0,430.0,http://www.redfin.com/CA/Garden-Grove/12461-Tunstall-Cir-92845/home/3926650,PW21169495,33.7814614,-118.03350859999999,9.333,3.826716061157669
354,11422 Larkin Dr,Garden Grove,CA,92841,1150000,3,2.75,2656.0,11200.0,1955.0,20.0,433.0,http://www.redfin.com/CA/Garden-Grove/11422-Larkin-Dr-92841/home/3643039,PW21158252,33.796723799999995,-117.9645767,6.333,3.826716061157669
355,9862 Aldgate Ave,Garden Grove,CA,92841,1229000,7,4.0,2500.0,8192.0,1955.0,23.0,492.0,http://www.redfin.com/CA/Garden-Grove/9862-Aldgate-Ave-92841/home/3642206,PW21167255,33.8007274,-117.961122,6.333,3.826716061157669
356,12652 Magnolia St,Garden Grove,CA,92841,849000,4,2.0,1838.0,7165.0,1951.0,25.0,462.0,http://www.redfin.com/CA/Garden-Grove/12652-Magnolia-St-92841/home/3655535,PW21166078,33.7789295,-117.97507790000002,7.333,3.826716061157669
357,10762 Lotus Dr,Garden Grove,CA,92843,998000,5,4.0,2992.0,3277.0,2013.0,25.0,334.0,http://www.redfin.com/CA/Garden-Grove/10762-Lotus-Dr-92843/home/51681840,PW21165996,33.7525839,-117.94175849999999,7.667,3.826716061157669
358,11941 Della Ln,Garden Grove,CA,92840,920000,4,2.0,1329.0,10157.0,1954.0,25.0,692.0,http://www.redfin.com/CA/Garden-Grove/11941-S-Della-Ln-92840/home/3406206,PW21164662,33.7894422,-117.93885890000001,7.333,3.826716061157669
359,5582 Park Ave,Garden Grove,CA,92845,948000,5,2.0,2013.0,6435.0,1967.0,26.0,471.0,http://www.redfin.com/CA/Garden-Grove/5582-Park-Ave-92845/home/3924635,PW21164966,33.7797153,-118.03583059999998,9.333,3.826716061157669
360,11692 Magnolia St,Garden Grove,CA,92841,839000,3,2.5,1320.0,7200.0,1955.0,26.0,636.0,http://www.redfin.com/CA/Garden-Grove/11692-Magnolia-St-92841/home/3646996,OC21164894,33.7928864,-117.9752152,6.667,3.826716061157669
361,11641 Vicilia,Garden Grove,CA,92841,848000,4,2.0,1258.0,7219.0,1955.0,28.0,674.0,http://www.redfin.com/CA/Garden-Grove/11641-Vicilia-St-92841/home/3646640,OC21163003,33.79351920000001,-117.98066000000001,6.333,3.826716061157669
362,10856 Lotus Dr,Garden Grove,CA,92843,1004900,5,3.5,2561.0,3167.0,2013.0,30.0,392.0,http://www.redfin.com/CA/Garden-Grove/10856-Lotus-Dr-92843/home/51681851,LG21161631,33.752596000000004,-117.9401174,7.667,3.826716061157669
363,11082 Sherman Ave,Garden Grove,CA,92843,899000,3,2.0,1312.0,6720.0,1954.0,31.0,685.0,http://www.redfin.com/CA/Garden-Grove/11082-Sherman-Ave-92843/home/3475170,PW21160891,33.7713225,-117.9364105,7.0,3.826716061157669
364,12632 Palomar St,Garden Grove,CA,92845,898000,5,2.0,1654.0,6000.0,1963.0,33.0,543.0,http://www.redfin.com/CA/Garden-Grove/12632-Palomar-St-92845/home/3623995,PW21159189,33.77904229999999,-118.01520079999999,8.667,3.826716061157669
365,12191 Santa Rosalia St,Garden Grove,CA,92841,938800,6,4.0,1888.0,7202.0,1958.0,33.0,497.0,http://www.redfin.com/CA/Garden-Grove/12191-Santa-Rosalia-St-92841/home/3635869,PW21157258,33.785357399999995,-117.9985031,7.0,3.826716061157669
366,12322 Adelle St,Garden Grove,CA,92841,865000,3,2.0,1461.0,7234.0,1955.0,38.0,592.0,http://www.redfin.com/CA/Garden-Grove/12322-Adelle-St-92841/home/3922696,TR21155071,33.78363220000001,-117.9821241,6.667,3.826716061157669
367,10323 Eclipse Ct,Garden Grove,CA,92840,698000,3,3.0,1478.0,1325.0,1997.0,44.0,472.0,http://www.redfin.com/CA/Garden-Grove/10323-Eclipse-Ct-92840/home/3396284,OC21149540,33.775813799999995,-117.9528892,7.0,3.826716061157669
368,10681 Allen,Garden Grove,CA,92840,887700,4,2.0,1549.0,9100.0,1954.0,45.0,573.0,http://www.redfin.com/CA/Garden-Grove/10681-Allen-Dr-92840/home/3386319,PW21148471,33.7857077,-117.94654720000001,7.667,3.826716061157669
369,11191 Clarissa St,Garden Grove,CA,92840,950000,6,4.0,2502.0,8631.0,1959.0,51.0,380.0,http://www.redfin.com/CA/Garden-Grove/11191-Clarissa-St-92840/home/3394508,21-756156,33.800284999999995,-117.9464557,6.667,3.826716061157669
370,11912 Edgewood Ln,Garden Grove,CA,92840,880000,4,3.0,1966.0,7208.0,1953.0,53.0,448.0,http://www.redfin.com/CA/Garden-Grove/11912-Edgewood-Ln-92840/home/3386737,OC21142550,33.789410600000004,-117.9556308,6.667,3.826716061157669
371,9692 Blanche Ave,Garden Grove,CA,92841,1088000,4,3.0,1901.0,8400.0,1954.0,53.0,572.0,http://www.redfin.com/CA/Garden-Grove/9692-Blanche-Ave-92841/home/3652686,PW21142539,33.7860696,-117.9640048,6.667,3.826716061157669
372,12471 Chase St,Garden Grove,CA,92845,798000,3,2.0,1307.0,6767.0,1962.0,54.0,611.0,http://www.redfin.com/CA/Garden-Grove/12471-Chase-St-92845/home/3626568,PW21141584,33.78165429999999,-118.02860359999998,8.667,3.826716061157669
373,10691 Mckeen St,Garden Grove,CA,92843,699999,2,2.0,780.0,6300.0,1923.0,54.0,897.0,http://www.redfin.com/CA/Garden-Grove/10691-McKeen-St-92843/home/3462885,DW21140463,33.771631299999996,-117.94286329999998,7.0,3.826716061157669
374,8821 Imperial Ave,Garden Grove,CA,92844,970000,7,3.5,2159.0,8750.0,1954.0,56.0,449.0,http://www.redfin.com/CA/Garden-Grove/8821-Imperial-Ave-92844/home/3438137,PW21139790,33.7701146,-117.9754439,7.667,3.826716061157669
375,9152 Stanford Ave,Garden Grove,CA,92841,1000000,4,3.0,2601.0,12467.0,1953.0,59.0,384.0,http://www.redfin.com/CA/Garden-Grove/9152-Stanford-Ave-92841/home/3658617,PW21137041,33.7773967,-117.97214950000001,7.333,3.826716061157669
376,9691 Bixby Ave,Garden Grove,CA,92841,2600000,4,3.0,1889.0,36155.0,1949.0,71.0,1376.0,http://www.redfin.com/CA/Garden-Grove/9691-Bixby-Ave-92841/home/45495851,PW21127797,33.7851561,-117.963959,6.667,3.826716061157669
377,8571 Davmor Ave,Garden Grove,CA,92841,870000,4,2.5,1857.0,7200.0,1956.0,76.0,468.0,http://www.redfin.com/CA/Garden-Grove/8571-Davmor-Ave-92841/home/3645000,PW21122124,33.7971669,-117.98299340000001,6.333,3.826716061157669
378,13232 Pinto Rd,Garden Grove,CA,92843,850000,4,2.5,2233.0,7425.0,1955.0,78.0,381.0,http://www.redfin.com/CA/Garden-Grove/13232-Pinto-Rd-92843/home/3478725,PW21121365,33.7709223,-117.92219979999999,6.667,3.826716061157669
379,13142 Palm St,Garden Grove,CA,92843,780000,3,1.0,929.0,7245.0,1954.0,79.0,840.0,http://www.redfin.com/CA/Garden-Grove/13142-Palm-St-92843/home/3486350,OC21118924,33.772124,-117.915403,6.0,3.826716061157669
380,13812 Figueroa St,Garden Grove,CA,92843,960000,5,2.0,2030.0,7200.0,1953.0,89.0,473.0,http://www.redfin.com/CA/Garden-Grove/13812-Figueroa-St-92843/home/3485812,PW21111522,33.7623781,-117.9190646,6.0,3.826716061157669
381,12302 Santa Rosalia St,Garden Grove,CA,92841,797000,4,2.0,1281.0,7475.0,1958.0,99.0,622.0,http://www.redfin.com/CA/Garden-Grove/12302-Santa-Rosalia-St-92841/home/3635666,OC21104139,33.783694700000005,-117.99790829999999,7.0,3.826716061157669
382,10621 Vienna Dr,Garden Grove,CA,92840,759000,4,1.75,1320.0,7282.0,1954.0,101.0,575.0,http://www.redfin.com/CA/Garden-Grove/10621-Vienna-Dr-92840/home/3383425,PW21101700,33.780109499999995,-117.94748529999998,7.667,3.826716061157669
383,9911 Lampson Ave,Garden Grove,CA,92841,1099000,3,2.0,2210.0,14250.0,1951.0,109.0,497.0,http://www.redfin.com/CA/Garden-Grove/9911-Lampson-Ave-92841/home/3652855,PW21095293,33.781623100000004,-117.95984070000002,6.667,3.826716061157669
384,13465 Mitchell Ave,Garden Grove,CA,92843,1095000,5,3.0,2000.0,7500.0,1953.0,130.0,548.0,http://www.redfin.com/CA/Garden-Grove/13465-Mitchell-Ave-92843/home/3464850,PW21072011,33.76741550000001,-117.94020900000001,7.0,3.826716061157669
385,9122 Healey Dr,Garden Grove,CA,92841,790000,5,2.0,1950.0,7202.0,1956.0,136.0,405.0,http://www.redfin.com/CA/Garden-Grove/9122-Healey-Dr-92841/home/3654400,PW21074178,33.7845184,-117.97311040000001,6.667,3.826716061157669
386,8821 Orangewood Ave,Garden Grove,CA,92841,950000,2,1.0,1358.0,12935.0,1926.0,141.0,700.0,http://www.redfin.com/CA/Garden-Grove/8821-Orangewood-Ave-92841/home/3644516,OC21069655,33.7960554,-117.9781892,6.333,3.826716061157669
387,12551 Lambert Cir,Garden Grove,CA,92841,1200000,6,4.0,2971.0,11544.0,1953.0,154.0,404.0,http://www.redfin.com/CA/Garden-Grove/12551-Lambert-Cir-92841/home/3655962,OC21059032,33.7804886,-117.96585800000001,7.0,3.826716061157669
388,12351 Georgian St,Garden Grove,CA,92841,1100000,5,3.0,2478.0,9300.0,1958.0,759.0,444.0,http://www.redfin.com/CA/Garden-Grove/12351-Georgian-St-92841/home/3635773,OC19176727,33.783214799999996,-117.9956895,7.0,3.826716061157669
389,4911 Hilo Cir,Huntington Beach,CA,92649,949999,3,2.0,1232.0,6060.0,1963.0,11.0,771.0,http://www.redfin.com/CA/Huntington-Beach/4911-Hilo-Cir-92649/home/3867977,OC21176228,33.727352,-118.04278290000002,7.667,4.096401306419876
390,18745 Park Haven Ln,Huntington Beach,CA,92648,965000,3,2.5,1647.0,2306.0,1997.0,1.0,586.0,http://www.redfin.com/CA/Huntington-Beach/18745-Park-Haven-Ln-92648/home/3838722,OC21185403,33.6900646,-117.9972678,8.0,4.096401306419876
391,19202 Hickory Ln,Huntington Beach,CA,92646,1049900,3,2.0,1416.0,6030.0,1969.0,2.0,741.0,http://www.redfin.com/CA/Huntington-Beach/19202-Hickory-Ln-92646/home/3803687,PW21178051,33.683800299999994,-117.96734509999999,9.0,4.096401306419876
392,20081 Lawson Ln,Huntington Beach,CA,92646,1215000,4,2.75,2334.0,6000.0,1966.0,2.0,521.0,http://www.redfin.com/CA/Huntington-Beach/20081-Lawson-Ln-92646/home/3812864,219066485,33.6711911,-117.95051629999999,8.667,4.096401306419876
393,6525 Park Royal Cir,Huntington Beach,CA,92648,2995000,4,3.0,3608.0,7030.0,1999.0,2.0,830.0,http://www.redfin.com/CA/Huntington-Beach/6525-Park-Royal-Cir-92648/home/3547924,OC21183483,33.68195,-118.01433899999999,8.333,4.096401306419876
394,15661 Sunflower Ln,Huntington Beach,CA,92647,1239000,5,3.0,2570.0,6214.0,1974.0,2.0,482.0,http://www.redfin.com/CA/Huntington-Beach/15661-Sunflower-Ln-92647/home/3746426,OC21144571,33.7349327,-118.0085905,8.333,4.096401306419876
395,6121 CORNELL Dr,Huntington Beach,CA,92647,950000,5,1.75,1756.0,279655200.0,1963.0,2.0,541.0,http://www.redfin.com/CA/Huntington-Beach/6121-Cornell-Dr-92647/home/3752584,OC21122553,33.7409717,-118.02206240000001,7.667,4.096401306419876
396,9302 Power Dr,Huntington Beach,CA,92646,2300000,5,4.5,3895.0,6480.0,1990.0,3.0,591.0,http://www.redfin.com/CA/Huntington-Beach/9302-Power-Dr-92646/home/3781847,PW21181975,33.6555091,-117.9655683,8.667,4.096401306419876
397,18775 Chapel Ln,Huntington Beach,CA,92646,799900,3,2.5,1779.0,2544.0,1983.0,3.0,450.0,http://www.redfin.com/CA/Huntington-Beach/18775-Chapel-Ln-92646/home/3832616,OC21182052,33.6904169,-117.984773,7.333,4.096401306419876
398,528 14th St,Huntington Beach,CA,92648,2199900,3,3.5,2650.0,2875.0,1999.0,3.0,830.0,http://www.redfin.com/CA/Huntington-Beach/528-14th-St-92648/home/3140220,OC21180865,33.66704429999999,-118.00546070000001,8.0,4.096401306419876
399,6431 Harmony Cir,Huntington Beach,CA,92647,849888,3,1.75,1218.0,6000.0,1964.0,3.0,698.0,http://www.redfin.com/CA/Huntington-Beach/6431-Harmony-Cir-92647/home/3884680,PW21183975,33.747898799999994,-118.0166189,8.0,4.096401306419876
400,19801 Chesapeake Ln,Huntington Beach,CA,92646,1199900,5,2.0,2198.0,6840.0,1962.0,3.0,546.0,http://www.redfin.com/CA/Huntington-Beach/19801-Chesapeake-Ln-92646/home/3797922,OC21178347,33.674864899999996,-117.966486,9.0,4.096401306419876
401,210 Alabama St,Huntington Beach,CA,92648,1899000,2,1.0,822.0,5100.0,1939.0,3.0,2310.0,http://www.redfin.com/CA/Huntington-Beach/210-Alabama-St-92648/home/3145423,OC21183726,33.6588703,-117.9963071,8.0,4.096401306419876
402,707 Hill St,Huntington Beach,CA,92648,1595000,4,3.75,2563.0,3510.0,1990.0,3.0,622.0,http://www.redfin.com/CA/Huntington-Beach/707-Hill-St-92648/home/3145754,OC21157446,33.6637392,-117.99058629999999,7.667,4.096401306419876
403,1813 Huntington St,Huntington Beach,CA,92648,1224500,4,3.5,2123.0,3375.0,1993.0,3.0,577.0,http://www.redfin.com/CA/Huntington-Beach/1813-Huntington-St-92648/home/3147044,OC21183062,33.673623799999994,-117.99539209999999,8.0,4.096401306419876
404,16662 Wellington Cir,Huntington Beach,CA,92649,1695000,3,2.0,2334.0,6200.0,1971.0,4.0,726.0,http://www.redfin.com/CA/Huntington-Beach/16662-Wellington-Cir-92649/home/3873018,OC21182646,33.7209784,-118.06631340000001,8.0,4.096401306419876
405,4692 Operetta Dr,Huntington Beach,CA,92649,985000,3,2.0,1624.0,6400.0,1962.0,4.0,607.0,http://www.redfin.com/CA/Huntington-Beach/4692-Operetta-Dr-92649/home/3869329,DW21179661,33.7253132,-118.04673909999998,7.667,4.096401306419876
406,4602 Oceanridge Dr,Huntington Beach,CA,92649,4599000,5,4.5,4099.0,7231.0,2008.0,5.0,1122.0,http://www.redfin.com/CA/Huntington-Beach/4602-Oceanridge-Dr-92649/home/21937560,OC21180160,33.7093584,-118.04808840000001,8.333,4.096401306419876
407,18402 Gina Ln,Huntington Beach,CA,92646,875000,3,2.0,1196.0,3496.0,1977.0,5.0,732.0,http://www.redfin.com/CA/Huntington-Beach/18402-Gina-Ln-92646/home/3828317,OC21176514,33.6954265,-117.9826274,6.0,4.096401306419876
408,17502 Montbury Cir,Huntington Beach,CA,92649,1520000,4,2.5,2144.0,6720.0,1975.0,5.0,709.0,http://www.redfin.com/CA/Huntington-Beach/17502-Montbury-Cir-92649/home/3843090,OC21179851,33.7079713,-118.0283748,7.667,4.096401306419876
409,10181 Jon Day Dr,Huntington Beach,CA,92646,1350000,5,2.75,2773.0,6288.0,1967.0,5.0,487.0,http://www.redfin.com/CA/Huntington-Beach/10181-Jon-Day-Dr-92646/home/3813312,OC21181130,33.6689786,-117.9505585,8.667,4.096401306419876
410,18676 Ambrose Ln,Huntington Beach,CA,92648,1375000,4,3.0,2051.0,3990.0,1998.0,8.0,670.0,http://www.redfin.com/CA/Huntington-Beach/18676-Ambrose-Ln-92648/home/3550122,OC21174920,33.6916265,-118.0038557,8.333,4.096401306419876
411,122 19th St,Huntington Beach,CA,92648,2250000,3,4.5,2766.0,2938.0,2004.0,8.0,813.0,http://www.redfin.com/CA/Huntington-Beach/122-19th-St-92648/home/5954289,OC21179274,33.666509999999995,-118.01310790000001,8.0,4.096401306419876
412,714 Huntington St,Huntington Beach,CA,92648,1499000,5,4.0,2700.0,3375.0,1983.0,9.0,555.0,http://www.redfin.com/CA/Huntington-Beach/714-Huntington-St-92648/home/3145601,OC21179494,33.663622100000005,-117.9946669,8.0,4.096401306419876
413,20331 Eastwood Cir,Huntington Beach,CA,92646,1200000,4,2.0,2180.0,6501.0,1968.0,9.0,550.0,http://www.redfin.com/CA/Huntington-Beach/20331-Eastwood-Cir-92646/home/3782716,OC21134543,33.6672997,-117.96405049999998,8.667,4.096401306419876
414,6061 Glenwood Dr,Huntington Beach,CA,92647,899990,3,2.0,1217.0,6049.0,1965.0,10.0,740.0,http://www.redfin.com/CA/Huntington-Beach/6061-Glenwood-Dr-92647/home/5753700,OC21178132,33.7506975,-118.0233889,8.0,4.096401306419876
415,1117 Florida St,Huntington Beach,CA,92648,2695000,4,3.5,3200.0,3375.0,2008.0,11.0,842.0,http://www.redfin.com/CA/Huntington-Beach/1117-Florida-St-92648/home/17467074,OC21175721,33.667432700000006,-117.99105719999999,7.667,4.096401306419876
416,19909 Burnley Ln,Huntington Beach,CA,92646,595000,3,1.5,1100.0,924.0,1963.0,11.0,541.0,http://www.redfin.com/CA/Huntington-Beach/19909-Burnley-Ln-92646/home/3801057,WS21171191,33.673269,-117.96041229999999,9.0,4.096401306419876
417,15312 Shasta Ln,Huntington Beach,CA,92647,899900,4,2.0,1432.0,6000.0,1963.0,12.0,628.0,http://www.redfin.com/CA/Huntington-Beach/15312-Shasta-Ln-92647/home/3721001,OC21166603,33.7398645,-117.99612409999999,7.333,4.096401306419876
418,1614 Pacific Coast,Huntington Beach,CA,92648,4250000,4,3.5,3992.0,4075.0,2004.0,13.0,1065.0,http://www.redfin.com/CA/Huntington-Beach/1614-Pacific-Coast-Hwy-92648/home/7201501,OC21174950,33.6647938,-118.0118614,8.0,4.096401306419876
419,226 2nd St,Huntington Beach,CA,92648,3450000,3,3.75,2875.0,3000.0,2021.0,13.0,1200.0,http://www.redfin.com/CA/Huntington-Beach/226-2nd-St-92648/home/173417317,OC21062032,33.6571893,-117.998951,8.0,4.096401306419876
420,16522 Charleyville Cir,Huntington Beach,CA,92649,1259990,4,3.0,2224.0,5607.0,1968.0,16.0,567.0,http://www.redfin.com/CA/Huntington-Beach/16522-Charleyville-Cir-92649/home/3767675,OC21141593,33.7222871,-118.0269111,8.333,4.096401306419876
421,21831 Seaside Ln,Huntington Beach,CA,92646,1849900,5,3.0,2520.0,6120.0,1969.0,16.0,734.0,http://www.redfin.com/CA/Huntington-Beach/21831-Seaside-Ln-92646/home/3778268,OC21170801,33.6455639,-117.96025259999999,8.667,4.096401306419876
422,6322 Santa Ynez Dr,Huntington Beach,CA,92647,1145000,4,2.0,2106.0,6000.0,1966.0,17.0,544.0,http://www.redfin.com/CA/Huntington-Beach/6322-Santa-Ynez-Dr-92647/home/3543983,OC21172588,33.7085083,-118.0179226,6.0,4.096401306419876
423,16732 Wanderer Ln,Huntington Beach,CA,92649,4495000,4,4.5,4780.0,5400.0,1971.0,17.0,940.0,http://www.redfin.com/CA/Huntington-Beach/16732-Wanderer-Ln-92649/home/3867813,OC21172345,33.7196049,-118.0621747,7.333,4.096401306419876
424,20471 Graystone Ln,Huntington Beach,CA,92646,1599000,4,2.5,2450.0,5915.0,1972.0,17.0,653.0,http://www.redfin.com/CA/Huntington-Beach/20471-Graystone-Ln-92646/home/3787074,OC21170341,33.665463200000005,-117.9588111,8.667,4.096401306419876
425,22072 Capistrano Ln,Huntington Beach,CA,92646,1549000,3,2.0,1346.0,6000.0,1964.0,18.0,1151.0,http://www.redfin.com/CA/Huntington-Beach/22072-Capistrano-Ln-92646/home/3555304,OC21170904,33.6420469,-117.9668875,8.667,4.096401306419876
426,19522 Starfish Ln,Huntington Beach,CA,92648,1025000,3,2.0,1400.0,3526.0,1973.0,18.0,732.0,http://www.redfin.com/CA/Huntington-Beach/19522-Starfish-Ln-92648/home/3133880,OC21168438,33.67668,-118.0060442,8.0,4.096401306419876
427,9401 Gateshead Dr,Huntington Beach,CA,92646,2175000,5,2.25,3092.0,6500.0,1978.0,18.0,703.0,http://www.redfin.com/CA/Huntington-Beach/9401-Gateshead-Dr-92646/home/3780934,OC21162123,33.6395162,-117.96340990000002,8.667,4.096401306419876
428,4831 Coveview Dr,Huntington Beach,CA,92649,1540000,4,2.5,1995.0,2875.0,2010.0,20.0,772.0,http://www.redfin.com/CA/Huntington-Beach/4831-Coveview-Dr-92649/home/17467962,320007108,33.7114584,-118.0442922,8.333,4.096401306419876
429,9421 Gulstrand Cir,Huntington Beach,CA,92646,1449000,4,2.5,2178.0,5980.0,1965.0,20.0,665.0,http://www.redfin.com/CA/Huntington-Beach/9421-Gulstrand-Cir-92646/home/3775495,OC21166602,33.6449208,-117.96304380000001,8.667,4.096401306419876
430,514 20th St,Huntington Beach,CA,92648,1699000,3,2.5,2250.0,2938.0,1979.0,21.0,755.0,http://www.redfin.com/CA/Huntington-Beach/514-20th-St-92648/home/3129212,OC21168744,33.670201,-118.01073400000001,8.0,4.096401306419876
431,3371 Tempe Dr,Huntington Beach,CA,92649,899999,3,3.0,1580.0,1540.0,1978.0,24.0,570.0,http://www.redfin.com/CA/Huntington-Beach/3371-Tempe-Dr-92649/home/3879670,OC21163070,33.728302,-118.06941200000001,7.333,4.096401306419876
432,19906 Maritime Ln,Huntington Beach,CA,92648,1195000,4,3.5,2300.0,2856.0,1975.0,25.0,520.0,http://www.redfin.com/CA/Huntington-Beach/19906-Maritime-Ln-92648/home/3134425,OC21165569,33.6709876,-118.00785859999999,8.0,4.096401306419876
433,17771 San Doval Ln,Huntington Beach,CA,92647,1599999,5,3.0,2465.0,6528.0,1967.0,26.0,649.0,http://www.redfin.com/CA/Huntington-Beach/17771-San-Doval-Ln-92647/home/3850425,OC21165260,33.7040709,-118.0131422,6.0,4.096401306419876
434,19341 Fiji Ln,Huntington Beach,CA,92646,1100000,5,3.0,1836.0,6000.0,1965.0,27.0,599.0,http://www.redfin.com/CA/Huntington-Beach/19341-Fiji-Ln-92646/home/3811226,OC21162053,33.6817359,-117.94792009999999,9.0,4.096401306419876
435,4601 Scenario Dr,Huntington Beach,CA,92649,1010000,3,2.0,1232.0,6100.0,1962.0,28.0,820.0,http://www.redfin.com/CA/Huntington-Beach/4601-Scenario-Dr-92649/home/3869365,OC21163235,33.7250545,-118.0483628,7.667,4.096401306419876
436,6691 Country Cir,Huntington Beach,CA,92648,4995000,4,4.5,3100.0,9600.0,2021.0,30.0,1611.0,http://www.redfin.com/CA/Huntington-Beach/6691-Country-Cir-92648/home/3133767,OC21096463,33.6816783,-118.01151829999999,8.333,4.096401306419876
437,17322 Juniper Ln,Huntington Beach,CA,92649,2400000,5,4.75,3826.0,6755.0,2019.0,30.0,627.0,http://www.redfin.com/CA/Huntington-Beach/17322-Juniper-Ln-92649/home/112723626,OC21143228,33.710836,-118.035118,7.333,4.096401306419876
438,10212 Cutty Sark Dr,Huntington Beach,CA,92646,999000,4,2.0,1458.0,6150.0,1962.0,30.0,685.0,http://www.redfin.com/CA/Huntington-Beach/10212-Cutty-Sark-Dr-92646/home/3809190,OC21161702,33.675371399999996,-117.9503226,9.0,4.096401306419876
439,6582 POLO Cir,Huntington Beach,CA,92648,3195000,4,4.0,4270.0,9000.0,1991.0,31.0,748.0,http://www.redfin.com/CA/Huntington-Beach/6582-Polo-Cir-92648/home/3837464,OC21159979,33.6911398,-118.0136226,8.333,4.096401306419876
440,6631 Walton Dr,Huntington Beach,CA,92647,976000,4,2.0,1808.0,6000.0,1964.0,31.0,540.0,http://www.redfin.com/CA/Huntington-Beach/6631-Walton-Dr-92647/home/3762370,OC21160549,33.729766299999994,-118.013005,7.333,4.096401306419876
441,9961 Kings Canyon Dr,Huntington Beach,CA,92646,1395000,4,3.0,2582.0,7992.0,1971.0,32.0,540.0,http://www.redfin.com/CA/Huntington-Beach/9961-Kings-Canyon-Dr-92646/home/3787147,OC21157848,33.6701362,-117.95444109999998,8.667,4.096401306419876
442,16111 Marjan Ln,Huntington Beach,CA,92647,1175000,3,2.5,1714.0,6000.0,1965.0,37.0,686.0,http://www.redfin.com/CA/Huntington-Beach/16111-Marjan-Ln-92647/home/3764394,PW21155607,33.728370299999995,-118.01042040000002,7.333,4.096401306419876
443,807 Huntington St,Huntington Beach,CA,92648,3250000,3,3.5,2900.0,3375.0,2019.0,38.0,1121.0,http://www.redfin.com/CA/Huntington-Beach/807-Huntington-St-92648/home/169438499,OC21154860,33.664297999999995,-117.9953463,8.0,4.096401306419876
444,6151 Oakbrook Cir,Huntington Beach,CA,92648,2599000,5,3.5,3776.0,7000.0,1987.0,38.0,688.0,http://www.redfin.com/CA/Huntington-Beach/6151-Oakbrook-Cir-92648/home/3135167,NP21153164,33.681680799999995,-118.0239607,8.333,4.096401306419876
445,14162 Enfield Cir,Westminster,CA,92683,949900,4,2.5,1996.0,5640.0,1972.0,39.0,476.0,http://www.redfin.com/CA/Westminster/14162-Enfield-Cir-92683/home/3891852,PW21153335,33.7568794,-118.03487,7.333,4.784899517110141
